{"html_attributions": [], "next_page_token": "AdDdOWormPxd06ezeoaZFufSB6sB4C1rfhYnCwP-GuQy50dXMPeBiZB8do8l9PFQesvnxCrdEFZfF6mr_XGMC67S9fcwNz7J7vyJbC0izUKhIgN86hm8hU8z8PP1kE4Ut-4o8OVXpH0fbDL0KylxfaLMrPm1BilVk69jEEKXTSTeqiuiuvbDnACQa3z5Qv7QZ_xKpshtzaL1gV53uYOc5-0xmYnIpG6ITIGsI0cZCZEBsrqw--bf-XR4j4kCpAxhKmXo1LO36TZVr0XVZuyKVkKD-Zj5mWBXxVOA3YL9LXWkyEHoq8iojGj2Ix58Xm6pY7nQwgvkk4fQ0ZwgwIq541XppzmfSx3UjlSBNvzYSK2Kkn63aElw1AuMkM63RoQmzilh4UWIuuBtwq_Y9Tv6PdFDQq3wAUcjh-hS5fp93aY6IyNUYnQzkxjOufcltMvhVe9gpw", "results": [{"business_status": "OPERATIONAL", "geometry": {"location": {"lat": 53.921685, "lng": 27.59904999999999}, "viewport": {"northeast": {"lat": 53.92277148029149, "lng": 27.5997439802915}, "southwest": {"lat": 53.9200735197085, "lng": 27.59704601970849}}}, "icon": "https://maps.gstatic.com/mapfiles/place_api/icons/v1/png_71/generic_business-71.png", "icon_background_color": "#7B9EB0", "icon_mask_base_uri": "https://maps.gstatic.com/mapfiles/place_api/icons/v2/generic_pinlet", "name": "Akademija navuk", "photos": [{"height": 3456, "html_attributions": ["<a href=\"https://maps.google.com/maps/contrib/113074657166952512027\">\u041c\u0430\u043a\u0441\u0438\u043c \u0428\u0438\u0448\u043f\u043e\u0440\u043e\u043d\u043e\u043a</a>"], "photo_reference": "AdDdOWrHDY4jskHsPCCyBRN8n-BY3S_yArLN-wrfuk52OCpnIfDB8Rn7nbIgIAeO3t_4ZgaTGuvsf_OLwt2qJR-GWBx052lS7UZh3MSEuK9gPFN0nLPRunEna52riRoKT6kjKJnPbfWwkmH4w5HHvxo841IuBLs7JUoBDJigLBjUI3aKCb6V", "width": 4608}], "place_id": "ChIJrUJvZQjP20YRzF55Vi3lRA0", "plus_code": {"compound_code": "WHCX+MJ Minsk, Belarus", "global_code": "9G59WHCX+MJ"}, "rating": 4.5, "reference": "ChIJrUJvZQjP20YRzF55Vi3lRA0", "scope": "GOOGLE", "types": ["subway_station", "transit_station", "point_of_interest", "establishment"], "user_ratings_total": 108, "vicinity": "praspiekt Niezalie\u017enasci, Minsk"}, {"business_status": "OPERATIONAL", "geometry": {"location": {"lat": 53.862001, "lng": 27.674068}, "viewport": {"northeast": {"lat": 53.8635498802915, "lng": 27.6755244802915}, "southwest": {"lat": 53.8608519197085, "lng": 27.6728265197085}}}, "icon": "https://maps.gstatic.com/mapfiles/place_api/icons/v1/png_71/generic_business-71.png", "icon_background_color": "#7B9EB0", "icon_mask_base_uri": "https://maps.gstatic.com/mapfiles/place_api/icons/v2/generic_pinlet", "name": "Mahilio\u016dskaja", "photos": [{"height": 800, "html_attributions": ["<a href=\"https://maps.google.com/maps/contrib/105787138803370507444\">Nikita Murdasov</a>"], "photo_reference": "AdDdOWqYElp0bZ5aEVINnHrHz6z2EmnuMs5rFv33DNQQlQFDzm_pF3CFj_PzMNZExAixJO3y2XHexeuc-LpXID1oECu--sUGfZy3LYwWyW-bP-ID8K_yVmjOny1YWOqmESAYYcq7ZCx_aD0rHklFS36Fyjh_v6MH5Qm8X5gwKC12pxN6_xe5", "width": 1200}], "place_id": "ChIJsR65G_PN20YRdHQxP3XU7ZA", "plus_code": {"compound_code": "VM6F+RJ Minsk, Belarus", "global_code": "9G59VM6F+RJ"}, "rating": 4.4, "reference": "ChIJsR65G_PN20YRdHQxP3XU7ZA", "scope": "GOOGLE", "types": ["subway_station", "transit_station", "point_of_interest", "establishment"], "user_ratings_total": 232, "vicinity": "Partyzanski praspekt, Minsk"}, {"business_status": "OPERATIONAL", "geometry": {"location": {"lat": 53.86888800000001, "lng": 27.649227}, "viewport": {"northeast": {"lat": 53.8700104802915, "lng": 27.6509467302915}, "southwest": {"lat": 53.86731251970851, "lng": 27.6482487697085}}}, "icon": "https://maps.gstatic.com/mapfiles/place_api/icons/v1/png_71/generic_business-71.png", "icon_background_color": "#7B9EB0", "icon_mask_base_uri": "https://maps.gstatic.com/mapfiles/place_api/icons/v2/generic_pinlet", "name": "A\u016dtazavodskaja", "photos": [{"height": 606, "html_attributions": ["<a href=\"https://maps.google.com/maps/contrib/105787138803370507444\">Nikita Murdasov</a>"], "photo_reference": "AdDdOWq2bT40bD3Ad667Fj9vYuQ3SRzimHY12qe6waIW9IIiQYtaTJWDUVIJYQnrI2_sOgeZz9DkG7GN-z4fKRLuYCpQAbmEJfG5tW8D3IaENHUjAqigSCVOIYpz6nJbzkO-Xa_pp3-uc6-53TqqF07h41EEFM6oOMpnB3F5nzmQEa4KQc5D", "width": 927}], "place_id": "ChIJyZDkA_3N20YR9zyk1D7jEis", "plus_code": {"compound_code": "VJ9X+HM Minsk, Belarus", "global_code": "9G59VJ9X+HM"}, "rating": 4.6, "reference": "ChIJyZDkA_3N20YR9zyk1D7jEis", "scope": "GOOGLE", "types": ["subway_station", "transit_station", "point_of_interest", "establishment"], "user_ratings_total": 21, "vicinity": "Belarus"}, {"business_status": "OPERATIONAL", "geometry": {"location": {"lat": 53.875648, "lng": 27.62957}, "viewport": {"northeast": {"lat": 53.87846195, "lng": 27.63269295000001}, "southwest": {"lat": 53.87305855, "lng": 27.62476235}}}, "icon": "https://maps.gstatic.com/mapfiles/place_api/icons/v1/png_71/generic_business-71.png", "icon_background_color": "#7B9EB0", "icon_mask_base_uri": "https://maps.gstatic.com/mapfiles/place_api/icons/v2/generic_pinlet", "name": "Partyzanskaja", "photos": [{"height": 614, "html_attributions": ["<a href=\"https://maps.google.com/maps/contrib/105787138803370507444\">Nikita Murdasov</a>"], "photo_reference": "AdDdOWq0siQxzxC7um9ha-GNjCay8LHLvRROGLgYWZWOV2zTJ7YvXGc7V_GLf_LRl1faF2WKEzE2826FkCfCXxBljfjtOfXe9Z0bYdmvzUYozuIJdP7ATPi-OMCS5_Rs2RVbM5bRi98N0hhaiH_LLYCCKTzRryBdCCutbLwkWQijYFV7eI33", "width": 927}], "place_id": "ChIJgYC2txrO20YRI4mB4zKgcf8", "plus_code": {"compound_code": "VJGH+7R Minsk, Belarus", "global_code": "9G59VJGH+7R"}, "rating": 4.5, "reference": "ChIJgYC2txrO20YRI4mB4zKgcf8", "scope": "GOOGLE", "types": ["subway_station", "transit_station", "point_of_interest", "establishment"], "user_ratings_total": 53, "vicinity": "Minsk"}, {"business_status": "OPERATIONAL", "geometry": {"location": {"lat": 53.8894928, "lng": 27.6147311}, "viewport": {"northeast": {"lat": 53.8907277802915, "lng": 27.6163351302915}, "southwest": {"lat": 53.8880298197085, "lng": 27.6136371697085}}}, "icon": "https://maps.gstatic.com/mapfiles/place_api/icons/v1/png_71/generic_business-71.png", "icon_background_color": "#7B9EB0", "icon_mask_base_uri": "https://maps.gstatic.com/mapfiles/place_api/icons/v2/generic_pinlet", "name": "Traktarny zavod", "photos": [{"height": 1080, "html_attributions": ["<a href=\"https://maps.google.com/maps/contrib/109505044938004985637\">\u041c\u0438\u0445\u0430\u0438\u043b \u0412\u0435\u0440\u0448\u0430\u043b\u044c</a>"], "photo_reference": "AdDdOWq77JpeDE2-Axow-vx2XRf_Vm_eM60huklm4f9x9tDa5MND9cYgeMzRMTypHGMutuumvZ8tGhG08qhFW26yms4bVzlFRcnrJAmWGvvIbRyzKJULtQbbZ57CfzepVzi6kBkuF6lWtITvrIW-S0UOfMoTh0P9J5R8tLnktDCQlbLLJvy9", "width": 1657}], "place_id": "ChIJx0WR0zjO20YR62tvInw6eps", "plus_code": {"compound_code": "VJQ7+QV Minsk, Belarus", "global_code": "9G59VJQ7+QV"}, "rating": 4.3, "reference": "ChIJx0WR0zjO20YR62tvInw6eps", "scope": "GOOGLE", "types": ["subway_station", "transit_station", "point_of_interest", "establishment"], "user_ratings_total": 60, "vicinity": "Minsk"}, {"business_status": "OPERATIONAL", "geometry": {"location": {"lat": 53.8896031, "lng": 27.5854794}, "viewport": {"northeast": {"lat": 53.8922542, "lng": 27.58682955000001}, "southwest": {"lat": 53.88871939999999, "lng": 27.58399454999999}}}, "icon": "https://maps.gstatic.com/mapfiles/place_api/icons/v1/png_71/generic_business-71.png", "icon_background_color": "#7B9EB0", "icon_mask_base_uri": "https://maps.gstatic.com/mapfiles/place_api/icons/v2/generic_pinlet", "name": "Pralietarskaja", "photos": [{"height": 614, "html_attributions": ["<a href=\"https://maps.google.com/maps/contrib/105787138803370507444\">Nikita Murdasov</a>"], "photo_reference": "AdDdOWqJARIHVk_eW8XU_OK4Y254SVDoXyte2obGeASyK4D_0zLix-K7q9ztSape00JAefeZCpukQfXhYsLvkJ5rHPfM9rzrmGIfue5UT2BDBUGzGerAvs1yKqN4Gn8LlwNgwqGwqzOnbgDAb4hH_fRm4i3Cg6cuS1bT9B4oNPAsZqE49T9F", "width": 927}], "place_id": "ChIJ0Te50zLO20YR6NfEWBBNB9Y", "plus_code": {"compound_code": "VHQP+R5 Minsk, Belarus", "global_code": "9G59VHQP+R5"}, "rating": 4.3, "reference": "ChIJ0Te50zLO20YR6NfEWBBNB9Y", "scope": "GOOGLE", "types": ["subway_station", "transit_station", "point_of_interest", "establishment"], "user_ratings_total": 55, "vicinity": "Minsk"}, {"business_status": "OPERATIONAL", "geometry": {"location": {"lat": 53.87710500000001, "lng": 27.549555}, "viewport": {"northeast": {"lat": 53.8785446302915, "lng": 27.5511129802915}, "southwest": {"lat": 53.8758466697085, "lng": 27.5484150197085}}}, "icon": "https://maps.gstatic.com/mapfiles/place_api/icons/v1/png_71/generic_business-71.png", "icon_background_color": "#7B9EB0", "icon_mask_base_uri": "https://maps.gstatic.com/mapfiles/place_api/icons/v2/generic_pinlet", "name": "Kava\u013askaja Slabada", "photos": [{"height": 6936, "html_attributions": ["<a href=\"https://maps.google.com/maps/contrib/104101425674290531188\">Liavontsi Ananka</a>"], "photo_reference": "AdDdOWruFGmTJU32Jk-KqvVjAJdDZLPa-9X5_Mv-BC3isM99ppys85JAmviMeKsoZj2Ok0h7p8qJmXMcEx046HrYtw5OeFNIYw7DdpkghwQTmBV8KDBH5-pcNh7IQKWUc6xc_AcfDXnJH04TkN0BLRseRX7SDM2mPRTbCYWzKpagSfWm67xJ", "width": 9248}], "place_id": "ChIJ4-c47yXQ20YRD9YhTDroNw8", "plus_code": {"compound_code": "VGGX+RR Minsk, Belarus", "global_code": "9G59VGGX+RR"}, "rating": 4, "reference": "ChIJ4-c47yXQ20YRD9YhTDroNw8", "scope": "GOOGLE", "types": ["subway_station", "transit_station", "point_of_interest", "establishment"], "user_ratings_total": 31, "vicinity": "Belarus"}, {"business_status": "OPERATIONAL", "geometry": {"location": {"lat": 53.89381400000001, "lng": 27.571049}, "viewport": {"northeast": {"lat": 53.8951561802915, "lng": 27.5721685302915}, "southwest": {"lat": 53.8924582197085, "lng": 27.5694705697085}}}, "icon": "https://maps.gstatic.com/mapfiles/place_api/icons/v1/png_71/generic_business-71.png", "icon_background_color": "#7B9EB0", "icon_mask_base_uri": "https://maps.gstatic.com/mapfiles/place_api/icons/v2/generic_pinlet", "name": "Pier\u0161amajskaja", "photos": [{"height": 628, "html_attributions": ["<a href=\"https://maps.google.com/maps/contrib/105787138803370507444\">Nikita Murdasov</a>"], "photo_reference": "AdDdOWoKBfAFqNN5faxq6ODprcMaZ8tGQe3Y9rqxXJ4aW-994PnPAY0FDfbf_FxtplmjoHv99GIawZgOCqHbcntCsKEHAIsb_30_-YI4C3HKYfwxCEGNvMEbhu58EHBsN4rhN1sZgFmdCrUuCRSVIfI-fPE3udZxfpR7gyhYT1EtB6syOkLG", "width": 950}], "place_id": "ChIJb5Tcgs_P20YRGSn9Wlh5C2c", "plus_code": {"compound_code": "VHVC+GC Minsk, Belarus", "global_code": "9G59VHVC+GC"}, "rating": 4.4, "reference": "ChIJb5Tcgs_P20YRGSn9Wlh5C2c", "scope": "GOOGLE", "types": ["subway_station", "transit_station", "point_of_interest", "establishment"], "user_ratings_total": 75, "vicinity": "Minsk"}, {"business_status": "OPERATIONAL", "geometry": {"location": {"lat": 53.88600799999999, "lng": 27.540818}, "viewport": {"northeast": {"lat": 53.88724089999999, "lng": 27.54256045}, "southwest": {"lat": 53.8838289, "lng": 27.53559064999999}}}, "icon": "https://maps.gstatic.com/mapfiles/place_api/icons/v1/png_71/generic_business-71.png", "icon_background_color": "#7B9EB0", "icon_mask_base_uri": "https://maps.gstatic.com/mapfiles/place_api/icons/v2/generic_pinlet", "name": "Institute of Culture", "photos": [{"height": 614, "html_attributions": ["<a href=\"https://maps.google.com/maps/contrib/105787138803370507444\">Nikita Murdasov</a>"], "photo_reference": "AdDdOWo5QdMLGZ6VZjtkXHQ1a3wEVIPB-d1K2pDwu6klUopcM0vQX7mOHDUlRHaQLyyxs3Erf8T2cU2PzHd851YOwm1JZljpEhyKqAsXseGeYUFGNubLl212Uw4WYuwx-v9j1ig7bVs2-QvdO9TVuFGXrZyfEh5d4_4faKpZv_8aKngjdF5C", "width": 927}], "place_id": "ChIJYRxfGyDQ20YRCqtfk7R1nnc", "plus_code": {"compound_code": "VGPR+C8 Minsk, Belarus", "global_code": "9G59VGPR+C8"}, "rating": 4.3, "reference": "ChIJYRxfGyDQ20YRCqtfk7R1nnc", "scope": "GOOGLE", "types": ["subway_station", "transit_station", "point_of_interest", "establishment"], "user_ratings_total": 86, "vicinity": "Vulica Sura\u017eskaja, Minsk"}, {"business_status": "OPERATIONAL", "geometry": {"location": {"lat": 53.8903462, "lng": 27.5459}, "viewport": {"northeast": {"lat": 53.8911164302915, "lng": 27.5482205}, "southwest": {"lat": 53.8884184697085, "lng": 27.5451265}}}, "icon": "https://maps.gstatic.com/mapfiles/place_api/icons/v1/png_71/generic_business-71.png", "icon_background_color": "#7B9EB0", "icon_mask_base_uri": "https://maps.gstatic.com/mapfiles/place_api/icons/v2/generic_pinlet", "name": "Vakza\u013anaja", "photos": [{"height": 2976, "html_attributions": ["<a href=\"https://maps.google.com/maps/contrib/111352143313771421863\">\u041c\u0430\u043a\u0441\u0438\u043c</a>"], "photo_reference": "AdDdOWr9XXzpZFvI6QdMexERZ1wAxwejUs1-Qq4YEqeChwUE0dLLcxeseVXawhwUCzu50WIcTLm-V-JVYnw9Uen1PxgLak0tf8-QIgGaGzJWzY0mPC_F8ewl86E5WRQRdvWgM-9HYY_wCmjK5sJ6dG56DRhUN2ELIxjLgL9UfstK2pJvwSEj", "width": 3968}], "place_id": "ChIJz-MnFN7P20YRgFLF7CAWcFY", "plus_code": {"compound_code": "VGRW+49 Minsk, Belarus", "global_code": "9G59VGRW+49"}, "rating": 4.5, "reference": "ChIJz-MnFN7P20YRgFLF7CAWcFY", "scope": "GOOGLE", "types": ["subway_station", "transit_station", "point_of_interest", "establishment"], "user_ratings_total": 21, "vicinity": "Belarus"}, {"business_status": "OPERATIONAL", "geometry": {"location": {"lat": 53.84985500000001, "lng": 27.474805}, "viewport": {"northeast": {"lat": 53.8510472802915, "lng": 27.4758449802915}, "southwest": {"lat": 53.8483493197085, "lng": 27.4731470197085}}}, "icon": "https://maps.gstatic.com/mapfiles/place_api/icons/v1/png_71/generic_business-71.png", "icon_background_color": "#7B9EB0", "icon_mask_base_uri": "https://maps.gstatic.com/mapfiles/place_api/icons/v2/generic_pinlet", "name": "Malina\u016dka", "photos": [{"height": 3456, "html_attributions": ["<a href=\"https://maps.google.com/maps/contrib/113074657166952512027\">\u041c\u0430\u043a\u0441\u0438\u043c \u0428\u0438\u0448\u043f\u043e\u0440\u043e\u043d\u043e\u043a</a>"], "photo_reference": "AdDdOWq58rl_oUw6NV11WILCPrKOq_WkWUAFdF4i9xz8cXU51XClFwC92S5vXd1egGEXZFUp0HO9IK_GPW1ISxoCZCF7Vo6UNTz_EKv3fLPLU0d0OeZgm3twk4sCl86iXj3AwnTvTlG-RMMubWEPXFeG11b5uvRG_5nwtS9H9-E-iXvKWosF", "width": 4608}], "place_id": "ChIJdTnSzIXQ20YRnDfubLatSPs", "plus_code": {"compound_code": "RFXF+WW Minsk, Belarus", "global_code": "9G59RFXF+WW"}, "rating": 4.5, "reference": "ChIJdTnSzIXQ20YRnDfubLatSPs", "scope": "GOOGLE", "types": ["subway_station", "transit_station", "point_of_interest", "establishment"], "user_ratings_total": 151, "vicinity": "Minsk"}, {"business_status": "OPERATIONAL", "geometry": {"location": {"lat": 53.892894, "lng": 27.547886}, "viewport": {"northeast": {"lat": 53.8939019802915, "lng": 27.5497687802915}, "southwest": {"lat": 53.8912040197085, "lng": 27.5470708197085}}}, "icon": "https://maps.gstatic.com/mapfiles/place_api/icons/v1/png_71/generic_business-71.png", "icon_background_color": "#7B9EB0", "icon_mask_base_uri": "https://maps.gstatic.com/mapfiles/place_api/icons/v2/generic_pinlet", "name": "Plo\u0161\u010da Lienina", "photos": [{"height": 6379, "html_attributions": ["<a href=\"https://maps.google.com/maps/contrib/104101425674290531188\">Liavontsi Ananka</a>"], "photo_reference": "AdDdOWrLQcSB_x-K3rUC4UcPlnpMLsM1PM2taxDoK3mRm5XiU8ElFM9FCD1d0fCzuZGUz5FPdxCpBd_E1WMX-OIRUG5rCExznJ7BtgX0d-NGLjNhVnh2eVdnGnJDUm7f5PWGC6UAbGTvPivlfWtcKW2EmbTMqGNbCC42ePLC0qR7_rZ-O4tc", "width": 8506}], "place_id": "ChIJqzKSk-fP20YR_9fTtPaQtuY", "plus_code": {"compound_code": "VGVX+55 Minsk, Belarus", "global_code": "9G59VGVX+55"}, "rating": 4.5, "reference": "ChIJqzKSk-fP20YR_9fTtPaQtuY", "scope": "GOOGLE", "types": ["subway_station", "transit_station", "point_of_interest", "establishment"], "user_ratings_total": 231, "vicinity": "praspiekt Niezalie\u017enasci 6, Minsk"}, {"business_status": "OPERATIONAL", "geometry": {"location": {"lat": 53.900968, "lng": 27.562077}, "viewport": {"northeast": {"lat": 53.9021508802915, "lng": 27.56361635}, "southwest": {"lat": 53.8994529197085, "lng": 27.55745895}}}, "icon": "https://maps.gstatic.com/mapfiles/place_api/icons/v1/png_71/generic_business-71.png", "icon_background_color": "#7B9EB0", "icon_mask_base_uri": "https://maps.gstatic.com/mapfiles/place_api/icons/v2/generic_pinlet", "name": "Kupalovskaya", "photos": [{"height": 614, "html_attributions": ["<a href=\"https://maps.google.com/maps/contrib/105787138803370507444\">Nikita Murdasov</a>"], "photo_reference": "AdDdOWoAGckan9XFSjllkJ48dfhnTSEwEKVDUJZmQ_ZLyi8R_PUVwfJcRBKhQjXVdiKAuNb3GIBuOMhYlXRWPURaHBfGLa1B8Ib8CcGmfOUvbLtu8LSQa4-fStJjDo8eIM-BiM61hBgY2UZvxGFWBsvPC_WNJztVtlNnJd8OqCgLMLxp9hs_", "width": 927}], "place_id": "ChIJE61HCsHP20YRKaJAS0G66Eo", "plus_code": {"compound_code": "WH26+9R Minsk, Belarus", "global_code": "9G59WH26+9R"}, "rating": 4.4, "reference": "ChIJE61HCsHP20YRKaJAS0G66Eo", "scope": "GOOGLE", "types": ["subway_station", "transit_station", "point_of_interest", "establishment"], "user_ratings_total": 97, "vicinity": "vulica Enhie\u013asa, Minsk"}, {"business_status": "OPERATIONAL", "geometry": {"location": {"lat": 53.902128, "lng": 27.562308}, "viewport": {"northeast": {"lat": 53.9034207802915, "lng": 27.56472205}, "southwest": {"lat": 53.9007228197085, "lng": 27.55961265}}}, "icon": "https://maps.gstatic.com/mapfiles/place_api/icons/v1/png_71/generic_business-71.png", "icon_background_color": "#7B9EB0", "icon_mask_base_uri": "https://maps.gstatic.com/mapfiles/place_api/icons/v2/generic_pinlet", "name": "Kastry\u010dnickaja", "photos": [{"height": 1800, "html_attributions": ["<a href=\"https://maps.google.com/maps/contrib/105347665285354978466\">M</a>"], "photo_reference": "AdDdOWqGYu-2kMQll3sq0RyWGRnILnCYR09Kp1RQSXZ1AMEnLNYI_DzXQlEOpZU6VwwCnsnPCf8oHpG852dZc6-K_nB_zWcOe9WCwFsS-9lD5V2RdJGIUFFSpdaURvHrl3k928MSZ-8imA5c1qMYQ4kZAuvD0atial_aUzjDntph1HAr5UIV", "width": 3175}], "place_id": "ChIJxW1DU8DP20YR-8sRbC8VHAE", "plus_code": {"compound_code": "WH26+VW Minsk, Belarus", "global_code": "9G59WH26+VW"}, "rating": 4.4, "reference": "ChIJxW1DU8DP20YR-8sRbC8VHAE", "scope": "GOOGLE", "types": ["subway_station", "transit_station", "point_of_interest", "establishment"], "user_ratings_total": 151, "vicinity": "praspekt Niezalie\u017enasci, Minsk"}, {"business_status": "OPERATIONAL", "geometry": {"location": {"lat": 53.864859, "lng": 27.486301}, "viewport": {"northeast": {"lat": 53.8664484802915, "lng": 27.4878229302915}, "southwest": {"lat": 53.8637505197085, "lng": 27.4851249697085}}}, "icon": "https://maps.gstatic.com/mapfiles/place_api/icons/v1/png_71/generic_business-71.png", "icon_background_color": "#7B9EB0", "icon_mask_base_uri": "https://maps.gstatic.com/mapfiles/place_api/icons/v2/generic_pinlet", "name": "\u041f\u044f\u0442\u0440\u043e\u045e\u0448\u0447\u044b\u043d\u0430", "photos": [{"height": 1840, "html_attributions": ["<a href=\"https://maps.google.com/maps/contrib/100598176989705519331\">\u0421\u0435\u0440\u0433\u0435\u0439 \u041a</a>"], "photo_reference": "AdDdOWol8246PWZ30Ii-8dCJ5VZjEq6hkI-gcvFDZ3xz0ZTlhk2KbSWnUjzdlnp03ThYo0C_8WxIALZppQq5yyfKzixMet5Nc9BRmERU4zJKMoxkQWO9b6kwJxJ3o7nOosHwlY8Ywm-V7UuTWxNkt04x9s5DINYixlgZiNlYy2DxrahZG_Jr", "width": 3264}], "place_id": "ChIJwUi38XnQ20YRpv4uASupDWw", "plus_code": {"compound_code": "VF7P+WG Minsk, Belarus", "global_code": "9G59VF7P+WG"}, "rating": 4.6, "reference": "ChIJwUi38XnQ20YRpv4uASupDWw", "scope": "GOOGLE", "types": ["subway_station", "transit_station", "point_of_interest", "establishment"], "user_ratings_total": 166, "vicinity": "Praspiekt Dziar\u017eynskaha, Minsk"}, {"business_status": "OPERATIONAL", "geometry": {"location": {"lat": 53.90954699999999, "lng": 27.576316}, "viewport": {"northeast": {"lat": 53.91028079999999, "lng": 27.57728615}, "southwest": {"lat": 53.90734560000001, "lng": 27.57340554999999}}}, "icon": "https://maps.gstatic.com/mapfiles/place_api/icons/v1/png_71/generic_business-71.png", "icon_background_color": "#7B9EB0", "icon_mask_base_uri": "https://maps.gstatic.com/mapfiles/place_api/icons/v2/generic_pinlet", "name": "Victory Square", "photos": [{"height": 5961, "html_attributions": ["<a href=\"https://maps.google.com/maps/contrib/104101425674290531188\">Liavontsi Ananka</a>"], "photo_reference": "AdDdOWqKORuk60QQX8YoXE6Z3SaYsYaEppdsQqOPiyUMmtM150_okkIFhVJa_sfefkc1ELwbvjtBCQL03RysMclhwo6BfIw2PrEiy48iObQ9e-u6Zr8Ix6XORqUzui4HTrkyC8lJSTGDuMvPgos82vdcWB7Nf9X0krEfkWbRXjL5eHJermCs", "width": 7948}], "place_id": "ChIJkWga-rvP20YRfmK6BaPfSzE", "plus_code": {"compound_code": "WH5G+RG Minsk, Belarus", "global_code": "9G59WH5G+RG"}, "rating": 4.6, "reference": "ChIJkWga-rvP20YRfmK6BaPfSzE", "scope": "GOOGLE", "types": ["subway_station", "transit_station", "point_of_interest", "establishment"], "user_ratings_total": 198, "vicinity": "praspiekt Niezalie\u017enasci, Minsk"}, {"business_status": "OPERATIONAL", "geometry": {"location": {"lat": 53.8965021, "lng": 27.53779899999999}, "viewport": {"northeast": {"lat": 53.8979045302915, "lng": 27.5387574802915}, "southwest": {"lat": 53.8952065697085, "lng": 27.53605951970849}}}, "icon": "https://maps.gstatic.com/mapfiles/place_api/icons/v1/png_71/generic_business-71.png", "icon_background_color": "#7B9EB0", "icon_mask_base_uri": "https://maps.gstatic.com/mapfiles/place_api/icons/v2/generic_pinlet", "name": "Plo\u0161\u010da Franci\u0161ka Bahu\u0161evi\u010da", "photos": [{"height": 3120, "html_attributions": ["<a href=\"https://maps.google.com/maps/contrib/104639374378819532944\">\u042e\u043b\u0438\u044f \u0410\u043d\u0434\u0440\u0435\u0435\u0432\u0430</a>"], "photo_reference": "AdDdOWqBpoI0oaNSRHyibKB3apaSBOyouaODQ-hpHVd5_Or2IWObOfXK0twBrWpPWYPw8_sl-1o442_R605IIxw_RB1td7-bmxkahhHAhgFzCgMFCpMyCMe3nd3HNEbxdwT1Lmb2tier3CaM4x3XeR5ReijxfKV5MxGnQKasqOGo-3RFtK3z", "width": 4160}], "place_id": "ChIJlRxESuTP20YRho_Wy68KZig", "plus_code": {"compound_code": "VGWQ+J4 Minsk, Belarus", "global_code": "9G59VGWQ+J4"}, "rating": 4.1, "reference": "ChIJlRxESuTP20YRho_Wy68KZig", "scope": "GOOGLE", "types": ["subway_station", "transit_station", "point_of_interest", "establishment"], "user_ratings_total": 12, "vicinity": "Belarus"}, {"business_status": "OPERATIONAL", "geometry": {"location": {"lat": 53.876753, "lng": 27.496935}, "viewport": {"northeast": {"lat": 53.8782470302915, "lng": 27.4985484802915}, "southwest": {"lat": 53.8755490697085, "lng": 27.4958505197085}}}, "icon": "https://maps.gstatic.com/mapfiles/place_api/icons/v1/png_71/generic_business-71.png", "icon_background_color": "#7B9EB0", "icon_mask_base_uri": "https://maps.gstatic.com/mapfiles/place_api/icons/v2/generic_pinlet", "name": "Michalova", "photos": [{"height": 3024, "html_attributions": ["<a href=\"https://maps.google.com/maps/contrib/101462476942404507166\">Andrew Ew</a>"], "photo_reference": "AdDdOWqOaG6KXBmTW2XqwYiPGSmltXitWz2ASSLohBkN62P95IlAzfOYFuEZbo2CTNfDEv5zA6WGXJOGZcdwv-1ZKYjxPsv-Xnfl55mQU8ptWAyn4Pq9fRZ6kUn632Z2QJqpMTxE0lIZupLRW8dBhRfpjDYU8f3XtFMIGQvxrsxhFY1eHMMJ", "width": 4032}], "place_id": "ChIJRc9upwvQ20YRw4NuymCW_7c", "plus_code": {"compound_code": "VFGW+PQ Minsk, Belarus", "global_code": "9G59VFGW+PQ"}, "rating": 4.4, "reference": "ChIJRc9upwvQ20YRw4NuymCW_7c", "scope": "GOOGLE", "types": ["subway_station", "transit_station", "point_of_interest", "establishment"], "user_ratings_total": 76, "vicinity": "\u0443\u043b\u0438\u0446\u0430 \u0413\u0443\u0440\u0441\u043a\u043e\u0433\u043e, Minsk"}, {"business_status": "OPERATIONAL", "geometry": {"location": {"lat": 53.88655929999999, "lng": 27.5140795}, "viewport": {"northeast": {"lat": 53.8880383302915, "lng": 27.5160622302915}, "southwest": {"lat": 53.88534036970851, "lng": 27.51336426970849}}}, "icon": "https://maps.gstatic.com/mapfiles/place_api/icons/v1/png_71/generic_business-71.png", "icon_background_color": "#7B9EB0", "icon_mask_base_uri": "https://maps.gstatic.com/mapfiles/place_api/icons/v2/generic_pinlet", "name": "\u0413\u0440\u0443\u0448\u0430\u045e\u043a\u0430", "photos": [{"height": 2869, "html_attributions": ["<a href=\"https://maps.google.com/maps/contrib/107659758104191198653\">Alexander Polomodov</a>"], "photo_reference": "AdDdOWosy-io3WcjP7B6TOXRwIrT0X2JO9nBM0zpi9SsDjez5qHPLjiRq3AFLNaJVoRq3fB48JbMEZ-kYEL7A31xVU_46CJnolOrmPaQeVeAlSgecRO8Z-V6Pt6aOzokDyEIHU8tJxtO-wcD__u14xQCHvGc2m425yjtuMXyKX1KaE6qGmEM", "width": 4590}], "place_id": "ChIJt8o_ewTQ20YRY6Tonp5Xf30", "plus_code": {"compound_code": "VGP7+JJ Minsk, Belarus", "global_code": "9G59VGP7+JJ"}, "rating": 4.4, "reference": "ChIJt8o_ewTQ20YRY6Tonp5Xf30", "scope": "GOOGLE", "types": ["subway_station", "transit_station", "point_of_interest", "establishment"], "user_ratings_total": 90, "vicinity": "\u0433\u0434\u0435 \u0440\u0430\u0441\u043f\u043e\u043b\u043e\u0436\u0435\u043d\u0430 \u0443\u043b.\u0422\u0438\u043c\u0438\u0440\u044f\u0437\u0435\u0432\u0441\u043a\u0430\u044f \u0438 \u043d\u0430 \u043a\u0430\u043a\u043e\u043c \u0442\u0440\u0430\u043d\u0441\u043f\u043e\u0440\u0442\u0435 \u043c\u043e\u0436\u043d\u043e \u0434\u043e\u0435\u0445\u0430\u0442\u044c, \u0432\u0443\u043b\u0456\u0446\u0430 \u0428\u0447\u043e\u0440\u0441\u0430, \u041c\u0456\u043d\u0441\u043a"}, {"business_status": "OPERATIONAL", "geometry": {"location": {"lat": 53.924165, "lng": 27.613338}, "viewport": {"northeast": {"lat": 53.9256192302915, "lng": 27.6152604802915}, "southwest": {"lat": 53.9229212697085, "lng": 27.6125625197085}}}, "icon": "https://maps.gstatic.com/mapfiles/place_api/icons/v1/png_71/generic_business-71.png", "icon_background_color": "#7B9EB0", "icon_mask_base_uri": "https://maps.gstatic.com/mapfiles/place_api/icons/v2/generic_pinlet", "name": "Park \u010caliuskinca\u016d", "photos": [{"height": 3000, "html_attributions": ["<a href=\"https://maps.google.com/maps/contrib/114354832208669551850\">Viktori@ smile</a>"], "photo_reference": "AdDdOWq4vdAh2mWqk7An68zheWFCh01MwesRQCJWqTrtqVPPLdLiH6EDCIWBZkGYIS3yjEuu7-yH7_tNoBPanKHelugm6_ZTy_l3fyowmJoSM42g_5p_36NXWN41wkRQsO4xEcJEu1-NEFD9dHW67_8jhru9aSXqt6LKqGOACZdkfPofN_Sh", "width": 4000}], "place_id": "ChIJJQIidwTP20YRxI2ywAOuHx4", "plus_code": {"compound_code": "WJF7+M8 Minsk, Belarus", "global_code": "9G59WJF7+M8"}, "rating": 4.7, "reference": "ChIJJQIidwTP20YRxI2ywAOuHx4", "scope": "GOOGLE", "types": ["subway_station", "transit_station", "point_of_interest", "establishment"], "user_ratings_total": 69, "vicinity": "praspiekt Niezalie\u017enasci, Minsk"}], "status": "OK"}