{"html_attributions": [], "next_page_token": "AdDdOWo51IZYTuuIr8Ba_Aq55t-ev22xTgC_mzOO3QtZKx6-5ZnC1E3hWGtxdEsNiY5kkle4dolKD_gD6AbYdRxVkiWHdlEbLAmFqbTr5NRiysH61XskGLevz3MRDPMvCq3ehtMDFdHpViMoZ03cKCR5LPms3Ti43rz9M_MCWlCPr7sAcH8v0Qesd3aDGTVW0DQrCdoklVQTORp9DFfIuKep4hWT_KSJqCe923jnD1OBITYVDnR8alFYocd6xHfGoozJ8GqAKHoIlvJxKd2nAmoiGZrhE-ZzF9WIoNyUA5QNpmQunD68vrgDa46kOnEMgE7Tj42qmPgG5I9j0MIzkuQmFasJeVN7Myk4fs3wX4Ux9e6KzdlNo-g9OrkpidFPGnkkgSRkThW35cILomLscNzkt8uevWGakP4dur5SR2DZ340sDI_ODaJPfLYQ0LuvqGGFKA", "results": [{"business_status": "OPERATIONAL", "geometry": {"location": {"lat": 53.921685, "lng": 27.59904999999999}, "viewport": {"northeast": {"lat": 53.92277148029149, "lng": 27.5997439802915}, "southwest": {"lat": 53.9200735197085, "lng": 27.59704601970849}}}, "icon": "https://maps.gstatic.com/mapfiles/place_api/icons/v1/png_71/generic_business-71.png", "icon_background_color": "#7B9EB0", "icon_mask_base_uri": "https://maps.gstatic.com/mapfiles/place_api/icons/v2/generic_pinlet", "name": "Akademija navuk", "photos": [{"height": 3456, "html_attributions": ["<a href=\"https://maps.google.com/maps/contrib/113074657166952512027\">\u041c\u0430\u043a\u0441\u0438\u043c \u0428\u0438\u0448\u043f\u043e\u0440\u043e\u043d\u043e\u043a</a>"], "photo_reference": "AdDdOWqPnt8FAdwPLtiFQwTq_manq1Hc-2zHA23_LrOqocMj788vSrMxBYXzQ7VtuUDZLmeISi8lbEDCF4Yh27EhQZEPDA1igy-LVRzIkvPVWxDiovPFXpyp_-pzDEqGurGMDDdbbp_hlaw6p522-Tc4Q6f_N2Fx_2TISLflwdKgbf5EJE4w", "width": 4608}], "place_id": "ChIJrUJvZQjP20YRzF55Vi3lRA0", "plus_code": {"compound_code": "WHCX+MJ Minsk, Belarus", "global_code": "9G59WHCX+MJ"}, "rating": 4.5, "reference": "ChIJrUJvZQjP20YRzF55Vi3lRA0", "scope": "GOOGLE", "types": ["subway_station", "transit_station", "point_of_interest", "establishment"], "user_ratings_total": 108, "vicinity": "praspiekt Niezalie\u017enasci, Minsk"}, {"business_status": "OPERATIONAL", "geometry": {"location": {"lat": 53.862001, "lng": 27.674068}, "viewport": {"northeast": {"lat": 53.8635498802915, "lng": 27.6755244802915}, "southwest": {"lat": 53.8608519197085, "lng": 27.6728265197085}}}, "icon": "https://maps.gstatic.com/mapfiles/place_api/icons/v1/png_71/generic_business-71.png", "icon_background_color": "#7B9EB0", "icon_mask_base_uri": "https://maps.gstatic.com/mapfiles/place_api/icons/v2/generic_pinlet", "name": "Mahilio\u016dskaja", "photos": [{"height": 800, "html_attributions": ["<a href=\"https://maps.google.com/maps/contrib/105787138803370507444\">Nikita Murdasov</a>"], "photo_reference": "AdDdOWoU21AzJiMQxjf_fEbnMVMV-vDdEZVfqMNE_oeXl93wZM13Jf6MNaS66NkrSeQM7p4yZDkoIE8SMovvfq5N2lmBXvJIYJ6mM4ZlwC1u7b4B-_7hjYAZOjgK_fB5eY89JQZ7_aBO6402HW8ij6PvW0bMvoZgvZ6Mm7NSApyjhRK2fFkW", "width": 1200}], "place_id": "ChIJsR65G_PN20YRdHQxP3XU7ZA", "plus_code": {"compound_code": "VM6F+RJ Minsk, Belarus", "global_code": "9G59VM6F+RJ"}, "rating": 4.4, "reference": "ChIJsR65G_PN20YRdHQxP3XU7ZA", "scope": "GOOGLE", "types": ["subway_station", "transit_station", "point_of_interest", "establishment"], "user_ratings_total": 232, "vicinity": "Partyzanski praspekt, Minsk"}, {"business_status": "OPERATIONAL", "geometry": {"location": {"lat": 53.94539899999999, "lng": 27.68790499999999}, "viewport": {"northeast": {"lat": 53.94695939999998, "lng": 27.69113535000002}, "southwest": {"lat": 53.9438494, "lng": 27.68507914999999}}}, "icon": "https://maps.gstatic.com/mapfiles/place_api/icons/v1/png_71/generic_business-71.png", "icon_background_color": "#7B9EB0", "icon_mask_base_uri": "https://maps.gstatic.com/mapfiles/place_api/icons/v2/generic_pinlet", "name": "Uru\u010d\u010da", "photos": [{"height": 3120, "html_attributions": ["<a href=\"https://maps.google.com/maps/contrib/115476190685529342707\">Zhanna Charniak</a>"], "photo_reference": "AdDdOWrHxG74JM8tqybYyJ_OW3zdjVX-Spqfj8ipxZNJJ5ohmImREdbVFaziIMHN1DzsrfcCbRmxZbD90CAjzts4DHxyeV7ELSS6jwI6fnMiTersWe-xPNBlqdNGeC-o0yXtqmkYvRBkzyMvNnM93Wv1ldgod5tgHMRO8JNkmLvROkBkTv6E", "width": 4160}], "place_id": "ChIJI20WoErJ20YRYhq4PHBa4jc", "plus_code": {"compound_code": "WMWQ+55 Minsk, Belarus", "global_code": "9G59WMWQ+55"}, "rating": 4.5, "reference": "ChIJI20WoErJ20YRYhq4PHBa4jc", "scope": "GOOGLE", "types": ["subway_station", "transit_station", "point_of_interest", "establishment"], "user_ratings_total": 93, "vicinity": "Uru\u010d\u010da, Minsk"}, {"business_status": "OPERATIONAL", "geometry": {"location": {"lat": 53.938968, "lng": 27.667316}, "viewport": {"northeast": {"lat": 53.94005148029151, "lng": 27.6681692802915}, "southwest": {"lat": 53.93735351970851, "lng": 27.6654713197085}}}, "icon": "https://maps.gstatic.com/mapfiles/place_api/icons/v1/png_71/generic_business-71.png", "icon_background_color": "#7B9EB0", "icon_mask_base_uri": "https://maps.gstatic.com/mapfiles/place_api/icons/v2/generic_pinlet", "name": "Barysa\u016dski trakt", "photos": [{"height": 3391, "html_attributions": ["<a href=\"https://maps.google.com/maps/contrib/107659758104191198653\">Alexander Polomodov</a>"], "photo_reference": "AdDdOWrEJHuLx37vD05wAXpCJTGHRD3ryOYKnqCntnf_Fo30XxhapbwGEyv3bMDnO8oRlhIuXJ8COoYVXRNEx4jg5pwOI2d-lBwvmRT3nZ6KhYAo2z1q2LCLOameFbVu0fEpMMvRgcUIGv7HEk2ibtehDkSoQK7vuDIKtQ0strW3q7OV6t6p", "width": 4521}], "place_id": "ChIJiZzdZc_O20YR2mMvWWLTw1c", "plus_code": {"compound_code": "WMQ8+HW Minsk, Belarus", "global_code": "9G59WMQ8+HW"}, "rating": 4.7, "reference": "ChIJiZzdZc_O20YR2mMvWWLTw1c", "scope": "GOOGLE", "types": ["subway_station", "transit_station", "point_of_interest", "establishment"], "user_ratings_total": 42, "vicinity": "praspiekt Niezalie\u017enasci, Minsk"}, {"business_status": "OPERATIONAL", "geometry": {"location": {"lat": 53.86888800000001, "lng": 27.649227}, "viewport": {"northeast": {"lat": 53.8700104802915, "lng": 27.6509467302915}, "southwest": {"lat": 53.86731251970851, "lng": 27.6482487697085}}}, "icon": "https://maps.gstatic.com/mapfiles/place_api/icons/v1/png_71/generic_business-71.png", "icon_background_color": "#7B9EB0", "icon_mask_base_uri": "https://maps.gstatic.com/mapfiles/place_api/icons/v2/generic_pinlet", "name": "A\u016dtazavodskaja", "photos": [{"height": 606, "html_attributions": ["<a href=\"https://maps.google.com/maps/contrib/105787138803370507444\">Nikita Murdasov</a>"], "photo_reference": "AdDdOWo9UQ7g21_iofHiussN809yv1OU3REszEPbogXp7pVxBJjo2D8dWF7K_lRUO0Yz_Z4qucO-W2SlGNVFXzpoLY6T9D_OrLLicWiniNLcRwMYkxIqGoJDTzTR3rTAD2OKXBgnQY12G9OfEPhFft8Y4dmhUKK-Ws81el7FqxI0N4ermuIb", "width": 927}], "place_id": "ChIJyZDkA_3N20YR9zyk1D7jEis", "plus_code": {"compound_code": "VJ9X+HM Minsk, Belarus", "global_code": "9G59VJ9X+HM"}, "rating": 4.6, "reference": "ChIJyZDkA_3N20YR9zyk1D7jEis", "scope": "GOOGLE", "types": ["subway_station", "transit_station", "point_of_interest", "establishment"], "user_ratings_total": 21, "vicinity": "Belarus"}, {"business_status": "OPERATIONAL", "geometry": {"location": {"lat": 53.93448499999999, "lng": 27.651321}, "viewport": {"northeast": {"lat": 53.93605083029149, "lng": 27.6530578802915}, "southwest": {"lat": 53.93335286970849, "lng": 27.6503599197085}}}, "icon": "https://maps.gstatic.com/mapfiles/place_api/icons/v1/png_71/generic_business-71.png", "icon_background_color": "#7B9EB0", "icon_mask_base_uri": "https://maps.gstatic.com/mapfiles/place_api/icons/v2/generic_pinlet", "name": "Uschod", "photos": [{"height": 614, "html_attributions": ["<a href=\"https://maps.google.com/maps/contrib/105787138803370507444\">Nikita Murdasov</a>"], "photo_reference": "AdDdOWrz_1542M9qsMIAEF1EpzpKFnos3z4N-h0M0wKBfuHpqlU4y74Yp7MH0lp9e-78gHgslNoNif_LxZObKvGV1GP7eb5RIf_xPPxubJKc9uHSuNCg0KT5VoUePnMSZDYfe5CvmQjgIm_naYwElnyV0Tc_OGWN_WVYaVkFVkoWYYfdtIUL", "width": 927}], "place_id": "ChIJcZpAktzO20YRzUwkOLo_bNU", "plus_code": {"compound_code": "WMM2+QG Minsk, Belarus", "global_code": "9G59WMM2+QG"}, "rating": 4.5, "reference": "ChIJcZpAktzO20YRzUwkOLo_bNU", "scope": "GOOGLE", "types": ["subway_station", "transit_station", "point_of_interest", "establishment"], "user_ratings_total": 176, "vicinity": "praspiekt Niezalie\u017enasci, Minsk"}, {"business_status": "OPERATIONAL", "geometry": {"location": {"lat": 53.875648, "lng": 27.62957}, "viewport": {"northeast": {"lat": 53.87846195, "lng": 27.63269295000001}, "southwest": {"lat": 53.87305855, "lng": 27.62476235}}}, "icon": "https://maps.gstatic.com/mapfiles/place_api/icons/v1/png_71/generic_business-71.png", "icon_background_color": "#7B9EB0", "icon_mask_base_uri": "https://maps.gstatic.com/mapfiles/place_api/icons/v2/generic_pinlet", "name": "Partyzanskaja", "photos": [{"height": 614, "html_attributions": ["<a href=\"https://maps.google.com/maps/contrib/105787138803370507444\">Nikita Murdasov</a>"], "photo_reference": "AdDdOWpmjXi2gO6zQtPF2p3AK9vyAdC4BcOlTEuKi3tm8HZ1DALpTFSjDgALMW_oHe5I7B-78ciHnhg4niC-eIzwtFQCAET3w78MGk6RonHNIR31jubatu3gKWRgoKKv6WhssxuI2Ndb4Z7nfhFAbHEq8aHBWpSnTw7Eiagu9wQr4et5lD8Z", "width": 927}], "place_id": "ChIJgYC2txrO20YRI4mB4zKgcf8", "plus_code": {"compound_code": "VJGH+7R Minsk, Belarus", "global_code": "9G59VJGH+7R"}, "rating": 4.5, "reference": "ChIJgYC2txrO20YRI4mB4zKgcf8", "scope": "GOOGLE", "types": ["subway_station", "transit_station", "point_of_interest", "establishment"], "user_ratings_total": 53, "vicinity": "Minsk"}, {"business_status": "OPERATIONAL", "geometry": {"location": {"lat": 53.92794, "lng": 27.627688}, "viewport": {"northeast": {"lat": 53.9290979802915, "lng": 27.6285820802915}, "southwest": {"lat": 53.9264000197085, "lng": 27.6258841197085}}}, "icon": "https://maps.gstatic.com/mapfiles/place_api/icons/v1/png_71/generic_business-71.png", "icon_background_color": "#7B9EB0", "icon_mask_base_uri": "https://maps.gstatic.com/mapfiles/place_api/icons/v2/generic_pinlet", "name": "Masko\u016dskaja", "photos": [{"height": 614, "html_attributions": ["<a href=\"https://maps.google.com/maps/contrib/105787138803370507444\">Nikita Murdasov</a>"], "photo_reference": "AdDdOWrc_C4XC1M-Y_al--oAFT4sK4a4XCfAbSi9VW8cvGI9T-Q-v5kauTwFlwiokZU6dhdrulz_s-ty-VL0YucGFPVdIcZgcjTfSuyKF7zLTz8XWJRa_mvda8UTJ1xDlbAuR8piranmtnKiacfo1CUiJEfma5zfVPqGNNOA3bg-ANBuL7oT", "width": 927}], "place_id": "ChIJDZAJdOLO20YRWSKeZykodgE", "plus_code": {"compound_code": "WJHH+53 Minsk, Belarus", "global_code": "9G59WJHH+53"}, "rating": 4.5, "reference": "ChIJDZAJdOLO20YRWSKeZykodgE", "scope": "GOOGLE", "types": ["subway_station", "transit_station", "point_of_interest", "establishment"], "user_ratings_total": 55, "vicinity": "praspiekt Niezalie\u017enasci, Minsk"}, {"business_status": "OPERATIONAL", "geometry": {"location": {"lat": 53.8894928, "lng": 27.6147311}, "viewport": {"northeast": {"lat": 53.8907277802915, "lng": 27.6163351302915}, "southwest": {"lat": 53.8880298197085, "lng": 27.6136371697085}}}, "icon": "https://maps.gstatic.com/mapfiles/place_api/icons/v1/png_71/generic_business-71.png", "icon_background_color": "#7B9EB0", "icon_mask_base_uri": "https://maps.gstatic.com/mapfiles/place_api/icons/v2/generic_pinlet", "name": "Traktarny zavod", "photos": [{"height": 1080, "html_attributions": ["<a href=\"https://maps.google.com/maps/contrib/109505044938004985637\">\u041c\u0438\u0445\u0430\u0438\u043b \u0412\u0435\u0440\u0448\u0430\u043b\u044c</a>"], "photo_reference": "AdDdOWrUKxIeFqRFW1uy0m0v_6Tb2nq0DH458W4EzuPJC9guvcYMlDw0kuKSzlPWewxRhTK3nV3VA89436GhoBLZOHs8go58ndBOsUnIYqEuOV0_vUphlKyyb7pl_tNAnwK3Su03q8dHMlGI9QorI_ydMM-kX1SyKzblZOZe0kUMHxrjb92k", "width": 1657}], "place_id": "ChIJx0WR0zjO20YR62tvInw6eps", "plus_code": {"compound_code": "VJQ7+QV Minsk, Belarus", "global_code": "9G59VJQ7+QV"}, "rating": 4.3, "reference": "ChIJx0WR0zjO20YR62tvInw6eps", "scope": "GOOGLE", "types": ["subway_station", "transit_station", "point_of_interest", "establishment"], "user_ratings_total": 60, "vicinity": "Minsk"}, {"business_status": "OPERATIONAL", "geometry": {"location": {"lat": 53.924165, "lng": 27.613338}, "viewport": {"northeast": {"lat": 53.9256192302915, "lng": 27.6152604802915}, "southwest": {"lat": 53.9229212697085, "lng": 27.6125625197085}}}, "icon": "https://maps.gstatic.com/mapfiles/place_api/icons/v1/png_71/generic_business-71.png", "icon_background_color": "#7B9EB0", "icon_mask_base_uri": "https://maps.gstatic.com/mapfiles/place_api/icons/v2/generic_pinlet", "name": "Park \u010caliuskinca\u016d", "photos": [{"height": 3000, "html_attributions": ["<a href=\"https://maps.google.com/maps/contrib/114354832208669551850\">Viktori@ smile</a>"], "photo_reference": "AdDdOWqZltKNi-t77rcG7G2M7G161J7CSQXCA_7KYuVdQjtXbWPmKHlsOpVjrKDsI_Q2yl00kQ-HnVi4xjIUOhgaEkr3nsKqClsyl834KtdvGw4ZitIFMQ7-A6bq1OgcXUHI_DCheeoBeU0L2qnYOpux-FiuGFtNMbcdJ41yfx7Y7xvxkq0p", "width": 4000}], "place_id": "ChIJJQIidwTP20YRxI2ywAOuHx4", "plus_code": {"compound_code": "WJF7+M8 Minsk, Belarus", "global_code": "9G59WJF7+M8"}, "rating": 4.7, "reference": "ChIJJQIidwTP20YRxI2ywAOuHx4", "scope": "GOOGLE", "types": ["subway_station", "transit_station", "point_of_interest", "establishment"], "user_ratings_total": 69, "vicinity": "praspiekt Niezalie\u017enasci, Minsk"}, {"business_status": "OPERATIONAL", "geometry": {"location": {"lat": 53.8896031, "lng": 27.5854794}, "viewport": {"northeast": {"lat": 53.8922542, "lng": 27.58682955000001}, "southwest": {"lat": 53.88871939999999, "lng": 27.58399454999999}}}, "icon": "https://maps.gstatic.com/mapfiles/place_api/icons/v1/png_71/generic_business-71.png", "icon_background_color": "#7B9EB0", "icon_mask_base_uri": "https://maps.gstatic.com/mapfiles/place_api/icons/v2/generic_pinlet", "name": "Pralietarskaja", "photos": [{"height": 614, "html_attributions": ["<a href=\"https://maps.google.com/maps/contrib/105787138803370507444\">Nikita Murdasov</a>"], "photo_reference": "AdDdOWqUbVDbG7uZpOEzDf3ZqZ_AQkBOI5sR-4cUkVUaRTkYqV6vvfGvOLRXYn67tdgpmzJhK7WQ1dHTGQsgejS1uTZLUxkcJg7JuB-KPhgP6R4-82k9LLKH-W1iEUoerKrr9ReF0QVSgb8H12dGj5bgRyvMF2qntb-S0BtdZauhxOfvhA1z", "width": 927}], "place_id": "ChIJ0Te50zLO20YR6NfEWBBNB9Y", "plus_code": {"compound_code": "VHQP+R5 Minsk, Belarus", "global_code": "9G59VHQP+R5"}, "rating": 4.3, "reference": "ChIJ0Te50zLO20YR6NfEWBBNB9Y", "scope": "GOOGLE", "types": ["subway_station", "transit_station", "point_of_interest", "establishment"], "user_ratings_total": 55, "vicinity": "Minsk"}, {"business_status": "OPERATIONAL", "geometry": {"location": {"lat": 53.915947, "lng": 27.584242}, "viewport": {"northeast": {"lat": 53.91731049999999, "lng": 27.5874513}, "southwest": {"lat": 53.91457729999999, "lng": 27.5802245}}}, "icon": "https://maps.gstatic.com/mapfiles/place_api/icons/v1/png_71/generic_business-71.png", "icon_background_color": "#7B9EB0", "icon_mask_base_uri": "https://maps.gstatic.com/mapfiles/place_api/icons/v2/generic_pinlet", "name": "Plo\u0161\u010da Jakuba Kolasa", "photos": [{"height": 3000, "html_attributions": ["<a href=\"https://maps.google.com/maps/contrib/116433741259729707234\">\u0418\u043d\u0435\u0441\u0441\u0430 \u0411\u044b\u0441\u0442\u0440\u043e\u0432\u0430</a>"], "photo_reference": "AdDdOWqzandHPTwx7qLmPRwIRBFiYDf21ynzotvEdDa05dUzBXoFw2eULPMri3uOCQy6H6vuXkDcNA5HZ480c42JRqhKeyQLA2ZAfyR3aoFwQFWdst0ntrNpfpukWvrpftANCAYZtss2eBb3DfM2c6r42V_hE9gwqCR5xlN2DrD23h3Fs5CY", "width": 3000}], "place_id": "ChIJaTZ2i6PP20YRuL87-2ak2UQ", "plus_code": {"compound_code": "WH8M+9M Minsk, Belarus", "global_code": "9G59WH8M+9M"}, "rating": 4.4, "reference": "ChIJaTZ2i6PP20YRuL87-2ak2UQ", "scope": "GOOGLE", "types": ["subway_station", "transit_station", "point_of_interest", "establishment"], "user_ratings_total": 150, "vicinity": "vulica Jakuba Kolasa, Minsk"}, {"business_status": "OPERATIONAL", "geometry": {"location": {"lat": 53.90954699999999, "lng": 27.576316}, "viewport": {"northeast": {"lat": 53.91028079999999, "lng": 27.57728615}, "southwest": {"lat": 53.90734560000001, "lng": 27.57340554999999}}}, "icon": "https://maps.gstatic.com/mapfiles/place_api/icons/v1/png_71/generic_business-71.png", "icon_background_color": "#7B9EB0", "icon_mask_base_uri": "https://maps.gstatic.com/mapfiles/place_api/icons/v2/generic_pinlet", "name": "Victory Square", "photos": [{"height": 5961, "html_attributions": ["<a href=\"https://maps.google.com/maps/contrib/104101425674290531188\">Liavontsi Ananka</a>"], "photo_reference": "AdDdOWpYq7d1ANpVhss2arv1WHn1QjVNFhtaKUcsCw8ndAKO8IxFzQfkiEBW79Fszq8EpRpAlwLwACm0Pt8do5w38jFG6BXvNT2VK83z4C_2QxTot0NT1SbPHiUbsmzq4Q0HoVzDYROX0z8nSElJSWZgR6YYZuITpDw2F2Csrd-R_lcMimRF", "width": 7948}], "place_id": "ChIJkWga-rvP20YRfmK6BaPfSzE", "plus_code": {"compound_code": "WH5G+RG Minsk, Belarus", "global_code": "9G59WH5G+RG"}, "rating": 4.6, "reference": "ChIJkWga-rvP20YRfmK6BaPfSzE", "scope": "GOOGLE", "types": ["subway_station", "transit_station", "point_of_interest", "establishment"], "user_ratings_total": 198, "vicinity": "praspiekt Niezalie\u017enasci, Minsk"}, {"business_status": "OPERATIONAL", "geometry": {"location": {"lat": 53.89381400000001, "lng": 27.571049}, "viewport": {"northeast": {"lat": 53.8951561802915, "lng": 27.5721685302915}, "southwest": {"lat": 53.8924582197085, "lng": 27.5694705697085}}}, "icon": "https://maps.gstatic.com/mapfiles/place_api/icons/v1/png_71/generic_business-71.png", "icon_background_color": "#7B9EB0", "icon_mask_base_uri": "https://maps.gstatic.com/mapfiles/place_api/icons/v2/generic_pinlet", "name": "Pier\u0161amajskaja", "photos": [{"height": 628, "html_attributions": ["<a href=\"https://maps.google.com/maps/contrib/105787138803370507444\">Nikita Murdasov</a>"], "photo_reference": "AdDdOWrGpGu44r-J8uNtauoM-_4Nm86RgK8FGANCagf4ITBha6oLkgn9Ula2fTld5wEeCooPC39pTCjOSSlsXwzrnTSxFg-pIxtDfjG0SKsq0NnrP-t13GWJYHbWNoxbydNdYjfj0luqCqU79Dfg9kV1SHefOs-6O9qa9UqUei9hCjVSvd8Y", "width": 950}], "place_id": "ChIJb5Tcgs_P20YRGSn9Wlh5C2c", "plus_code": {"compound_code": "VHVC+GC Minsk, Belarus", "global_code": "9G59VHVC+GC"}, "rating": 4.4, "reference": "ChIJb5Tcgs_P20YRGSn9Wlh5C2c", "scope": "GOOGLE", "types": ["subway_station", "transit_station", "point_of_interest", "establishment"], "user_ratings_total": 75, "vicinity": "Minsk"}, {"business_status": "OPERATIONAL", "geometry": {"location": {"lat": 53.902128, "lng": 27.562308}, "viewport": {"northeast": {"lat": 53.9034207802915, "lng": 27.56472205}, "southwest": {"lat": 53.9007228197085, "lng": 27.55961265}}}, "icon": "https://maps.gstatic.com/mapfiles/place_api/icons/v1/png_71/generic_business-71.png", "icon_background_color": "#7B9EB0", "icon_mask_base_uri": "https://maps.gstatic.com/mapfiles/place_api/icons/v2/generic_pinlet", "name": "Kastry\u010dnickaja", "photos": [{"height": 1800, "html_attributions": ["<a href=\"https://maps.google.com/maps/contrib/105347665285354978466\">M</a>"], "photo_reference": "AdDdOWrEuCi5fX-_Ll_Ojx4S2TnrvQ7zEuHWvykislrtjCkNQr6i598-yV_uFU8MuZUnZG-1ML3PSnLfcMUe5-5lesqS5cHHmOlofAjGkaEhsGI87pnR3CM1_6ga7lT3WG9sp8Jbn3XWyChAnPf0EIL7LCCPtw804a_ScJUpeeOQIhdEdltB", "width": 3175}], "place_id": "ChIJxW1DU8DP20YR-8sRbC8VHAE", "plus_code": {"compound_code": "WH26+VW Minsk, Belarus", "global_code": "9G59WH26+VW"}, "rating": 4.4, "reference": "ChIJxW1DU8DP20YR-8sRbC8VHAE", "scope": "GOOGLE", "types": ["subway_station", "transit_station", "point_of_interest", "establishment"], "user_ratings_total": 151, "vicinity": "praspekt Niezalie\u017enasci, Minsk"}, {"business_status": "OPERATIONAL", "geometry": {"location": {"lat": 53.900968, "lng": 27.562077}, "viewport": {"northeast": {"lat": 53.9021508802915, "lng": 27.56361635}, "southwest": {"lat": 53.8994529197085, "lng": 27.55745895}}}, "icon": "https://maps.gstatic.com/mapfiles/place_api/icons/v1/png_71/generic_business-71.png", "icon_background_color": "#7B9EB0", "icon_mask_base_uri": "https://maps.gstatic.com/mapfiles/place_api/icons/v2/generic_pinlet", "name": "Kupalovskaya", "photos": [{"height": 614, "html_attributions": ["<a href=\"https://maps.google.com/maps/contrib/105787138803370507444\">Nikita Murdasov</a>"], "photo_reference": "AdDdOWrZhMgWjglr2yod6kpj1dsZZJNNwB5m2EieGma1DEoiMR3J8kkFLHsK1V5jozZSx_qQoqoi4rSRWiiuIk-NNK-VLpOCTU3TCcxXxk5AqutybnpmhE_3ts4_LKXIvj8fAqDbNi-nSF6y1_-WBkgd8etfkiWLLPvW9RjZD7l1Li7MWwaK", "width": 927}], "place_id": "ChIJE61HCsHP20YRKaJAS0G66Eo", "plus_code": {"compound_code": "WH26+9R Minsk, Belarus", "global_code": "9G59WH26+9R"}, "rating": 4.4, "reference": "ChIJE61HCsHP20YRKaJAS0G66Eo", "scope": "GOOGLE", "types": ["subway_station", "transit_station", "point_of_interest", "establishment"], "user_ratings_total": 97, "vicinity": "vulica Enhie\u013asa, Minsk"}, {"business_status": "OPERATIONAL", "geometry": {"location": {"lat": 53.905959, "lng": 27.554065}, "viewport": {"northeast": {"lat": 53.9070026802915, "lng": 27.5551299802915}, "southwest": {"lat": 53.9043047197085, "lng": 27.5524320197085}}}, "icon": "https://maps.gstatic.com/mapfiles/place_api/icons/v1/png_71/generic_business-71.png", "icon_background_color": "#7B9EB0", "icon_mask_base_uri": "https://maps.gstatic.com/mapfiles/place_api/icons/v2/generic_pinlet", "name": "Niamiha", "photos": [{"height": 1124, "html_attributions": ["<a href=\"https://maps.google.com/maps/contrib/110630681299150126577\">Daumantas Kviklys</a>"], "photo_reference": "AdDdOWok1KkCYI7vi6UKOpNv_i4AThAtixVM2S5RGW1cZKPruC9_0VsMuxn3fB0CBxQh46ZaiVg1eJTA2x0-5ibF78wX4lVfOUS_lrBZqyA0IFpwP8O4wLD_iA-wmLVxcZBYhYaDnoHvRWViVg3OMeTyOETM-psDkK_F353WhkuoMJGZa-rq", "width": 2000}], "place_id": "ChIJjUQ0R-vP20YR34v7zgTVplU", "plus_code": {"compound_code": "WH43+9J Minsk, Belarus", "global_code": "9G59WH43+9J"}, "rating": 4.7, "reference": "ChIJjUQ0R-vP20YR34v7zgTVplU", "scope": "GOOGLE", "types": ["subway_station", "transit_station", "point_of_interest", "establishment"], "user_ratings_total": 298, "vicinity": "Minsk"}, {"business_status": "OPERATIONAL", "geometry": {"location": {"lat": 53.892894, "lng": 27.547886}, "viewport": {"northeast": {"lat": 53.8939019802915, "lng": 27.5497687802915}, "southwest": {"lat": 53.8912040197085, "lng": 27.5470708197085}}}, "icon": "https://maps.gstatic.com/mapfiles/place_api/icons/v1/png_71/generic_business-71.png", "icon_background_color": "#7B9EB0", "icon_mask_base_uri": "https://maps.gstatic.com/mapfiles/place_api/icons/v2/generic_pinlet", "name": "Plo\u0161\u010da Lienina", "photos": [{"height": 6379, "html_attributions": ["<a href=\"https://maps.google.com/maps/contrib/104101425674290531188\">Liavontsi Ananka</a>"], "photo_reference": "AdDdOWpVaacd-6lrjyypZK964jfEgml6JoLfdJRenxBD8GeBuKu_qqd53-pr5k1qW-vItacej56HRM7UbBnEF5Csm9mHpqDVVfYGFjoW33FhnovOMJrRrnlZgaJv3jHq_3goi3nsLAJtwy4-9g6ED36p5oUJMxYigI7eWnh05aiWtOl1Gxpm", "width": 8506}], "place_id": "ChIJqzKSk-fP20YR_9fTtPaQtuY", "plus_code": {"compound_code": "VGVX+55 Minsk, Belarus", "global_code": "9G59VGVX+55"}, "rating": 4.5, "reference": "ChIJqzKSk-fP20YR_9fTtPaQtuY", "scope": "GOOGLE", "types": ["subway_station", "transit_station", "point_of_interest", "establishment"], "user_ratings_total": 231, "vicinity": "praspiekt Niezalie\u017enasci 6, Minsk"}, {"business_status": "OPERATIONAL", "geometry": {"location": {"lat": 53.87710500000001, "lng": 27.549555}, "viewport": {"northeast": {"lat": 53.8785446302915, "lng": 27.5511129802915}, "southwest": {"lat": 53.8758466697085, "lng": 27.5484150197085}}}, "icon": "https://maps.gstatic.com/mapfiles/place_api/icons/v1/png_71/generic_business-71.png", "icon_background_color": "#7B9EB0", "icon_mask_base_uri": "https://maps.gstatic.com/mapfiles/place_api/icons/v2/generic_pinlet", "name": "Kava\u013askaja Slabada", "photos": [{"height": 6936, "html_attributions": ["<a href=\"https://maps.google.com/maps/contrib/104101425674290531188\">Liavontsi Ananka</a>"], "photo_reference": "AdDdOWoXPObX-LYvrqn-sJUrsfGl4tWhHTp79La7DiPx2NHaE4BY0Sh6trUuZbiiprB5FANRhey1FjcfQwQM_jybS2AKEkE0PhqDALjc4_cd3dVdcmdESDCflp0Koh7HzP2fkGBwp0KMCDKbsVFfwwPnSfNAzT-VO7Ka07PDAUtQi102MjvA", "width": 9248}], "place_id": "ChIJ4-c47yXQ20YRD9YhTDroNw8", "plus_code": {"compound_code": "VGGX+RR Minsk, Belarus", "global_code": "9G59VGGX+RR"}, "rating": 4, "reference": "ChIJ4-c47yXQ20YRD9YhTDroNw8", "scope": "GOOGLE", "types": ["subway_station", "transit_station", "point_of_interest", "establishment"], "user_ratings_total": 31, "vicinity": "Belarus"}, {"business_status": "OPERATIONAL", "geometry": {"location": {"lat": 53.8903462, "lng": 27.5459}, "viewport": {"northeast": {"lat": 53.8911164302915, "lng": 27.5482205}, "southwest": {"lat": 53.8884184697085, "lng": 27.5451265}}}, "icon": "https://maps.gstatic.com/mapfiles/place_api/icons/v1/png_71/generic_business-71.png", "icon_background_color": "#7B9EB0", "icon_mask_base_uri": "https://maps.gstatic.com/mapfiles/place_api/icons/v2/generic_pinlet", "name": "Vakza\u013anaja", "photos": [{"height": 2976, "html_attributions": ["<a href=\"https://maps.google.com/maps/contrib/111352143313771421863\">\u041c\u0430\u043a\u0441\u0438\u043c</a>"], "photo_reference": "AdDdOWqihL9o5AZ5ekI11kURNbOvrdSnrw1TDxglyDO7M_eEdXswCUHhVAAMyrnqJF_DjJIF72Gd1XNGukDvO2Q1O5-d3HPhK5ZtOXAsmtNZ0KVbKbmacZHX1V8Nv4qd9sooarEYg7J8Yr_UrRcikr1Yq6TxIjd9UWHmeraQcHFysQmoT3l9", "width": 3968}], "place_id": "ChIJz-MnFN7P20YRgFLF7CAWcFY", "plus_code": {"compound_code": "VGRW+49 Minsk, Belarus", "global_code": "9G59VGRW+49"}, "rating": 4.5, "reference": "ChIJz-MnFN7P20YRgFLF7CAWcFY", "scope": "GOOGLE", "types": ["subway_station", "transit_station", "point_of_interest", "establishment"], "user_ratings_total": 21, "vicinity": "Belarus"}], "status": "OK"}