{"html_attributions": [], "next_page_token": "AdDdOWro0IqqfdrOUy1YqF0v3M9ZG_6txrc_KtMj0xHvoBC3Q9jL4rUMypw3M2L56gtIsOChof-FtfD1e-IW2L9v_9uAJ8OD_nDO5IYG30rEd8CMZnBBvLqghJeD74SCiR4vQoH8G5C2rS4GkiMz77dyizHLTNFirkpRJmqJjzIWZvUzzezSk_w45q3QxJ9do2dCazdb3n9LdBX_zx6ZeNPdwOUGiV19nHnp_Rl_vHaM0dZ4WONbSyYZiWVnVHhAAHXltelGL3POCOJJ7rOPZ9jphDNe-Fc4_2K8gzV16kKr2aNxF0EOSQaKT5rDFtDOmUO9IThGtUNJCSOjgtCtCn9687Z18MA-7L65fUcZ1cAfNgD1or5D2btQQoYKKhb92_9vyqxwfS_8Xo1srUr4QopYqkv7lCVJfPDrzJv9qmE1p_dSaU6kv4NVvqpxYemTjbIqmg", "results": [{"business_status": "OPERATIONAL", "geometry": {"location": {"lat": 53.921685, "lng": 27.59904999999999}, "viewport": {"northeast": {"lat": 53.92277148029149, "lng": 27.5997439802915}, "southwest": {"lat": 53.9200735197085, "lng": 27.59704601970849}}}, "icon": "https://maps.gstatic.com/mapfiles/place_api/icons/v1/png_71/generic_business-71.png", "icon_background_color": "#7B9EB0", "icon_mask_base_uri": "https://maps.gstatic.com/mapfiles/place_api/icons/v2/generic_pinlet", "name": "Akademija navuk", "photos": [{"height": 3456, "html_attributions": ["<a href=\"https://maps.google.com/maps/contrib/113074657166952512027\">\u041c\u0430\u043a\u0441\u0438\u043c \u0428\u0438\u0448\u043f\u043e\u0440\u043e\u043d\u043e\u043a</a>"], "photo_reference": "AdDdOWpB9ja3SFdgVoKt3U4z38Zx9dLcZQe1TZBoj1dB0annQLcMEQWm239MyHrt7on_7lRTKX7cW5DfbfH-q3jWbDr1gzT5e9HuViRrz7nS3NsbWEsUeX-FcvgS9n7_p4sKdJlrgDhwUxl6Z2Ywfb-j14Bku7wpq0sqJPdVBiDM7q6HNFVw", "width": 4608}], "place_id": "ChIJrUJvZQjP20YRzF55Vi3lRA0", "plus_code": {"compound_code": "WHCX+MJ Minsk, Belarus", "global_code": "9G59WHCX+MJ"}, "rating": 4.5, "reference": "ChIJrUJvZQjP20YRzF55Vi3lRA0", "scope": "GOOGLE", "types": ["subway_station", "transit_station", "point_of_interest", "establishment"], "user_ratings_total": 108, "vicinity": "praspiekt Niezalie\u017enasci, Minsk"}, {"business_status": "OPERATIONAL", "geometry": {"location": {"lat": 53.906873, "lng": 27.437634}, "viewport": {"northeast": {"lat": 53.9082920302915, "lng": 27.44175194999999}, "southwest": {"lat": 53.9055940697085, "lng": 27.43265255000001}}}, "icon": "https://maps.gstatic.com/mapfiles/place_api/icons/v1/png_71/generic_business-71.png", "icon_background_color": "#7B9EB0", "icon_mask_base_uri": "https://maps.gstatic.com/mapfiles/place_api/icons/v2/generic_pinlet", "name": "Kamiennaja Horka", "photos": [{"height": 547, "html_attributions": ["<a href=\"https://maps.google.com/maps/contrib/105787138803370507444\">Nikita Murdasov</a>"], "photo_reference": "AdDdOWo97VQr_eGWt3LosXj6YuvD2wgAtp6GtzM26gcSxXG0BANJ1YSV5rYJyGZMJzZuGC8pGOpu_-Xu2F9RxXGKwJYBmVLK_hvRo-jaXuCkkOO-Y9TYf34Ut2t2ny9fW8aZm1TOusohICixCfMUxaNq7ApiT4rnmo96eMCVyUDJbg0eEX6k", "width": 820}], "place_id": "ChIJGQnpIirb20YRiFxPwj98oTQ", "plus_code": {"compound_code": "WC4Q+P3 Minsk, Belarus", "global_code": "9G59WC4Q+P3"}, "rating": 4.4, "reference": "ChIJGQnpIirb20YRiFxPwj98oTQ", "scope": "GOOGLE", "types": ["subway_station", "transit_station", "point_of_interest", "establishment"], "user_ratings_total": 189, "vicinity": "vulica Prytyckaha, Minsk"}, {"business_status": "OPERATIONAL", "geometry": {"location": {"lat": 53.906292, "lng": 27.453945}, "viewport": {"northeast": {"lat": 53.90770648029149, "lng": 27.4552608302915}, "southwest": {"lat": 53.9050085197085, "lng": 27.4525628697085}}}, "icon": "https://maps.gstatic.com/mapfiles/place_api/icons/v1/png_71/generic_business-71.png", "icon_background_color": "#7B9EB0", "icon_mask_base_uri": "https://maps.gstatic.com/mapfiles/place_api/icons/v2/generic_pinlet", "name": "Kunca\u016d\u0161\u010dyna", "photos": [{"height": 3456, "html_attributions": ["<a href=\"https://maps.google.com/maps/contrib/107659758104191198653\">Alexander Polomodov</a>"], "photo_reference": "AdDdOWpHSfWAWUv3FsYfjuQ8zhlm9cOqucQ0pxPZzG4_8m8WET2N34Z8uoF_gF5qWoTdlarIhrGfpyqFSD1z1o8FuuNoZqCLvGbL5gFkKk29oA0Cem_8zmqCsbCwo1M0V7T_-U8o-Ns6hKNPXgf5DjA4SvyXMEWZUkY5-HEipl0k4_bHYJtw", "width": 4608}], "place_id": "ChIJQRz1JtPa20YRTrAjxcsRXJk", "plus_code": {"compound_code": "WF43+GH Minsk, Belarus", "global_code": "9G59WF43+GH"}, "rating": 4.3, "reference": "ChIJQRz1JtPa20YRTrAjxcsRXJk", "scope": "GOOGLE", "types": ["subway_station", "transit_station", "point_of_interest", "establishment"], "user_ratings_total": 69, "vicinity": "vulica Prytyckaha, Minsk"}, {"business_status": "OPERATIONAL", "geometry": {"location": {"lat": 53.9085393, "lng": 27.480908}, "viewport": {"northeast": {"lat": 53.90985313029149, "lng": 27.4821105802915}, "southwest": {"lat": 53.9071551697085, "lng": 27.4794126197085}}}, "icon": "https://maps.gstatic.com/mapfiles/place_api/icons/v1/png_71/generic_business-71.png", "icon_background_color": "#7B9EB0", "icon_mask_base_uri": "https://maps.gstatic.com/mapfiles/place_api/icons/v2/generic_pinlet", "name": "Sparty\u016dnaja", "photos": [{"height": 2448, "html_attributions": ["<a href=\"https://maps.google.com/maps/contrib/104035404819719278247\">ted ted</a>"], "photo_reference": "AdDdOWq3lvW4uPGL_cOVQRYF5QfpIoyIPZOaIwSbaOz6jJio-2REEt76YbUVmN1RF0nh_XcjnW56njU14GYkjXpHJOph9dhPPU01oaWCF_i-9EqvP-v3wXLA21O8QGf1IUU6KB_Wy5BJ9aDwx9TwMzJ9ukpYacNmLmD5-G_07EBurEI41XHS", "width": 3264}], "place_id": "ChIJlQ0JcDbF20YRMSibJQEWb20", "plus_code": {"compound_code": "WF5J+C9 Minsk, Belarus", "global_code": "9G59WF5J+C9"}, "rating": 4.4, "reference": "ChIJlQ0JcDbF20YRMSibJQEWb20", "scope": "GOOGLE", "types": ["subway_station", "transit_station", "point_of_interest", "establishment"], "user_ratings_total": 86, "vicinity": "vulica Prytyckaha, Minsk"}, {"business_status": "OPERATIONAL", "geometry": {"location": {"lat": 53.90964899999999, "lng": 27.497429}, "viewport": {"northeast": {"lat": 53.91085218029151, "lng": 27.50005964999999}, "southwest": {"lat": 53.90815421970851, "lng": 27.49329705000001}}}, "icon": "https://maps.gstatic.com/mapfiles/place_api/icons/v1/png_71/generic_business-71.png", "icon_background_color": "#7B9EB0", "icon_mask_base_uri": "https://maps.gstatic.com/mapfiles/place_api/icons/v2/generic_pinlet", "name": "Pu\u0161kinskaja", "photos": [{"height": 620, "html_attributions": ["<a href=\"https://maps.google.com/maps/contrib/105787138803370507444\">Nikita Murdasov</a>"], "photo_reference": "AdDdOWroI7lQen5-HFEd-9hiRTDclrOJj4PopUwRMJxck-dB8i8YdWLkgirOhEFCXH0aI_cS2ohuojgGEIf5Kd-Cjpwo-NjNfhfnoXCZ9LbayGirHZCqjwDESoKRj0sRzX4INcqcTJvxq6migfPVXXAVQBnB7guNMTE8gmjzKjsUP_kgXTuB", "width": 927}], "place_id": "ChIJ2SY18UXF20YRNEwSbGKjWGg", "plus_code": {"compound_code": "WF5W+VX Minsk, Belarus", "global_code": "9G59WF5W+VX"}, "rating": 4.5, "reference": "ChIJ2SY18UXF20YRNEwSbGKjWGg", "scope": "GOOGLE", "types": ["subway_station", "transit_station", "point_of_interest", "establishment"], "user_ratings_total": 126, "vicinity": "Minsk"}, {"business_status": "OPERATIONAL", "geometry": {"location": {"lat": 53.876753, "lng": 27.496935}, "viewport": {"northeast": {"lat": 53.8782470302915, "lng": 27.4985484802915}, "southwest": {"lat": 53.8755490697085, "lng": 27.4958505197085}}}, "icon": "https://maps.gstatic.com/mapfiles/place_api/icons/v1/png_71/generic_business-71.png", "icon_background_color": "#7B9EB0", "icon_mask_base_uri": "https://maps.gstatic.com/mapfiles/place_api/icons/v2/generic_pinlet", "name": "Michalova", "photos": [{"height": 3024, "html_attributions": ["<a href=\"https://maps.google.com/maps/contrib/101462476942404507166\">Andrew Ew</a>"], "photo_reference": "AdDdOWoaw6nYzIfC_Fa8WQ8H2bmzvkHQXs_4dqc2nePx9iXx_J1thtl8skfx8jwnKGjgufWKj5e4KjFV-oRBLF2_Kthe8ctDLp8bXEUyzJgwBS1JgNKenjzjeBasLimhgbxZORylHsU5SSwnljzDoT3tdi9eOLK4OoJ1oOflORkabDkdMFaU", "width": 4032}], "place_id": "ChIJRc9upwvQ20YRw4NuymCW_7c", "plus_code": {"compound_code": "VFGW+PQ Minsk, Belarus", "global_code": "9G59VFGW+PQ"}, "rating": 4.4, "reference": "ChIJRc9upwvQ20YRw4NuymCW_7c", "scope": "GOOGLE", "types": ["subway_station", "transit_station", "point_of_interest", "establishment"], "user_ratings_total": 76, "vicinity": "\u0443\u043b\u0438\u0446\u0430 \u0413\u0443\u0440\u0441\u043a\u043e\u0433\u043e, Minsk"}, {"business_status": "OPERATIONAL", "geometry": {"location": {"lat": 53.864859, "lng": 27.486301}, "viewport": {"northeast": {"lat": 53.8664484802915, "lng": 27.4878229302915}, "southwest": {"lat": 53.8637505197085, "lng": 27.4851249697085}}}, "icon": "https://maps.gstatic.com/mapfiles/place_api/icons/v1/png_71/generic_business-71.png", "icon_background_color": "#7B9EB0", "icon_mask_base_uri": "https://maps.gstatic.com/mapfiles/place_api/icons/v2/generic_pinlet", "name": "\u041f\u044f\u0442\u0440\u043e\u045e\u0448\u0447\u044b\u043d\u0430", "photos": [{"height": 1840, "html_attributions": ["<a href=\"https://maps.google.com/maps/contrib/100598176989705519331\">\u0421\u0435\u0440\u0433\u0435\u0439 \u041a</a>"], "photo_reference": "AdDdOWosx-EVa0gXWPQdmABhxTHJo4_X9DhbBa09JMiW4F9PO1W6wct6FJil24QqHBBRrdlGZDXncb09KLeJ6_dWDL4JPdrp-BYe3k9Q7uDx_v-dPeK6ggjDjkasiyTVowpfIuzUMmEk7cFVQVNRSXKlidMoLEuUa-5ZLb_3ULBivpYtxC_d", "width": 3264}], "place_id": "ChIJwUi38XnQ20YRpv4uASupDWw", "plus_code": {"compound_code": "VF7P+WG Minsk, Belarus", "global_code": "9G59VF7P+WG"}, "rating": 4.6, "reference": "ChIJwUi38XnQ20YRpv4uASupDWw", "scope": "GOOGLE", "types": ["subway_station", "transit_station", "point_of_interest", "establishment"], "user_ratings_total": 166, "vicinity": "Praspiekt Dziar\u017eynskaha, Minsk"}, {"business_status": "OPERATIONAL", "geometry": {"location": {"lat": 53.906799, "lng": 27.522678}, "viewport": {"northeast": {"lat": 53.9079829302915, "lng": 27.5235178802915}, "southwest": {"lat": 53.9052849697085, "lng": 27.5208199197085}}}, "icon": "https://maps.gstatic.com/mapfiles/place_api/icons/v1/png_71/generic_business-71.png", "icon_background_color": "#7B9EB0", "icon_mask_base_uri": "https://maps.gstatic.com/mapfiles/place_api/icons/v2/generic_pinlet", "name": "Maladzio\u017enaja", "photos": [{"height": 796, "html_attributions": ["<a href=\"https://maps.google.com/maps/contrib/105787138803370507444\">Nikita Murdasov</a>"], "photo_reference": "AdDdOWoP6qk5ulfraHah-zSqmFlGXunTLIupgplhsHYI1nV8t-mk_y3FF0kxC0UCQbOc4nSPfYj0lNVo5rVPqiR_2Z68Da2cRSPpizWH9qm_fZygbFnRIMH6M4r14OCBHZvprK4Y55ZuhPj5d-PczOef1wdgq8n3qAjuJpQP9_xxdgxCWrq1", "width": 1202}], "place_id": "ChIJPYXpKfbP20YRjEwxeGKKAVk", "plus_code": {"compound_code": "WG4F+P3 Minsk, Belarus", "global_code": "9G59WG4F+P3"}, "rating": 4.4, "reference": "ChIJPYXpKfbP20YRjEwxeGKKAVk", "scope": "GOOGLE", "types": ["subway_station", "transit_station", "point_of_interest", "establishment"], "user_ratings_total": 45, "vicinity": "Pier\u0161y Zaharadny zavulak, Minsk"}, {"business_status": "OPERATIONAL", "geometry": {"location": {"lat": 53.88655929999999, "lng": 27.5140795}, "viewport": {"northeast": {"lat": 53.8880383302915, "lng": 27.5160622302915}, "southwest": {"lat": 53.88534036970851, "lng": 27.51336426970849}}}, "icon": "https://maps.gstatic.com/mapfiles/place_api/icons/v1/png_71/generic_business-71.png", "icon_background_color": "#7B9EB0", "icon_mask_base_uri": "https://maps.gstatic.com/mapfiles/place_api/icons/v2/generic_pinlet", "name": "\u0413\u0440\u0443\u0448\u0430\u045e\u043a\u0430", "photos": [{"height": 2869, "html_attributions": ["<a href=\"https://maps.google.com/maps/contrib/107659758104191198653\">Alexander Polomodov</a>"], "photo_reference": "AdDdOWrq2ESViqfA6FbVsZd6VUxG2Xnh72qw1SF3d96OHEGVTdaB85JO24I-ITn62NkkoSLISDIbZYsFNtYQXY_q8qfvZoIyPkGoiY4kENZODBziGi8PXo_FSzjysMpJ9cRDPccZ5ZknXGIJ4XykrPNGOzom-m04TELIWN2c30Cw9D1AhJBN", "width": 4590}], "place_id": "ChIJt8o_ewTQ20YRY6Tonp5Xf30", "plus_code": {"compound_code": "VGP7+JJ Minsk, Belarus", "global_code": "9G59VGP7+JJ"}, "rating": 4.4, "reference": "ChIJt8o_ewTQ20YRY6Tonp5Xf30", "scope": "GOOGLE", "types": ["subway_station", "transit_station", "point_of_interest", "establishment"], "user_ratings_total": 90, "vicinity": "\u0433\u0434\u0435 \u0440\u0430\u0441\u043f\u043e\u043b\u043e\u0436\u0435\u043d\u0430 \u0443\u043b.\u0422\u0438\u043c\u0438\u0440\u044f\u0437\u0435\u0432\u0441\u043a\u0430\u044f \u0438 \u043d\u0430 \u043a\u0430\u043a\u043e\u043c \u0442\u0440\u0430\u043d\u0441\u043f\u043e\u0440\u0442\u0435 \u043c\u043e\u0436\u043d\u043e \u0434\u043e\u0435\u0445\u0430\u0442\u044c, \u0432\u0443\u043b\u0456\u0446\u0430 \u0428\u0447\u043e\u0440\u0441\u0430, \u041c\u0456\u043d\u0441\u043a"}, {"business_status": "OPERATIONAL", "geometry": {"location": {"lat": 53.84985500000001, "lng": 27.474805}, "viewport": {"northeast": {"lat": 53.8510472802915, "lng": 27.4758449802915}, "southwest": {"lat": 53.8483493197085, "lng": 27.4731470197085}}}, "icon": "https://maps.gstatic.com/mapfiles/place_api/icons/v1/png_71/generic_business-71.png", "icon_background_color": "#7B9EB0", "icon_mask_base_uri": "https://maps.gstatic.com/mapfiles/place_api/icons/v2/generic_pinlet", "name": "Malina\u016dka", "photos": [{"height": 3456, "html_attributions": ["<a href=\"https://maps.google.com/maps/contrib/113074657166952512027\">\u041c\u0430\u043a\u0441\u0438\u043c \u0428\u0438\u0448\u043f\u043e\u0440\u043e\u043d\u043e\u043a</a>"], "photo_reference": "AdDdOWotDxRz7l9GP0d4TFxFZ7fCzEDqP_O7VpvtjktDQUFDuN7wnRG4CV_1NC_bZkXel7fk-f-o1pxy_65HSb6Z4n_h3sQraceT4bS6z-S3vmatjWE-FGCmqBA7ZaCjWDrGUjhoB_Ovr7wm7j9Xs7VV_-H3-nkAXM4r-Q0lRx54Liytl38t", "width": 4608}], "place_id": "ChIJdTnSzIXQ20YRnDfubLatSPs", "plus_code": {"compound_code": "RFXF+WW Minsk, Belarus", "global_code": "9G59RFXF+WW"}, "rating": 4.5, "reference": "ChIJdTnSzIXQ20YRnDfubLatSPs", "scope": "GOOGLE", "types": ["subway_station", "transit_station", "point_of_interest", "establishment"], "user_ratings_total": 151, "vicinity": "Minsk"}, {"business_status": "OPERATIONAL", "geometry": {"location": {"lat": 53.905235, "lng": 27.53922}, "viewport": {"northeast": {"lat": 53.9066061802915, "lng": 27.54260455}, "southwest": {"lat": 53.9039082197085, "lng": 27.53630635}}}, "icon": "https://maps.gstatic.com/mapfiles/place_api/icons/v1/png_71/generic_business-71.png", "icon_background_color": "#7B9EB0", "icon_mask_base_uri": "https://maps.gstatic.com/mapfiles/place_api/icons/v2/generic_pinlet", "name": "Frunzienskaja", "photos": [{"height": 601, "html_attributions": ["<a href=\"https://maps.google.com/maps/contrib/105787138803370507444\">Nikita Murdasov</a>"], "photo_reference": "AdDdOWo2xkaKNqkM_t5larEOJ1VCET4L1Q43Crjjdf_t-cBl6n1SC3jA9TlnkcFdNBTFSeZi0cm3E1LdfA4-u5k2zE4v-qf4iJNIv8T8HX0cPTgMPXn8o6L67BigiO904wwzb_dF1Bim2YAbGWeTz_DaGEwRvwHlp3n5pLdl-BNDngToSDDK", "width": 927}], "place_id": "ChIJ6c1IGvLP20YRCZ6Mll6-dqI", "plus_code": {"compound_code": "WG4Q+3M Minsk, Belarus", "global_code": "9G59WG4Q+3M"}, "rating": 4.6, "reference": "ChIJ6c1IGvLP20YRCZ6Mll6-dqI", "scope": "GOOGLE", "types": ["subway_station", "transit_station", "point_of_interest", "establishment"], "user_ratings_total": 89, "vicinity": "vulica Ka\u013avaryjskaja, Minsk"}, {"business_status": "OPERATIONAL", "geometry": {"location": {"lat": 53.90426009999999, "lng": 27.539911}, "viewport": {"northeast": {"lat": 53.9058744302915, "lng": 27.5414910802915}, "southwest": {"lat": 53.90317646970851, "lng": 27.5387931197085}}}, "icon": "https://maps.gstatic.com/mapfiles/place_api/icons/v1/png_71/generic_business-71.png", "icon_background_color": "#7B9EB0", "icon_mask_base_uri": "https://maps.gstatic.com/mapfiles/place_api/icons/v2/generic_pinlet", "name": "Jubiliejnaja plo\u0161\u010da", "photos": [{"height": 667, "html_attributions": ["<a href=\"https://maps.google.com/maps/contrib/105787138803370507444\">Nikita Murdasov</a>"], "photo_reference": "AdDdOWoZC6OzSGnaN6XtKXWDu4lSW_11rDigmqE55idYWUEWfeE3hqJnsTGs1q_5xhDsa5hGIQOq0L05vPV0kWv5yrckQ8GsCR2ZAAzg-4iBm2FAz5YANzEcL-08hrzH2Zt-NVNpxsvBcxH84KDzVziKGf6deKoprxwJpxh_j4ofU7vgnkZh", "width": 1000}], "place_id": "ChIJ7767Ae7P20YRFRzg1Mk0dc4", "plus_code": {"compound_code": "WG3Q+PX Minsk, Belarus", "global_code": "9G59WG3Q+PX"}, "rating": 4.4, "reference": "ChIJ7767Ae7P20YRFRzg1Mk0dc4", "scope": "GOOGLE", "types": ["subway_station", "transit_station", "point_of_interest", "establishment"], "user_ratings_total": 16, "vicinity": "Belarus"}, {"business_status": "OPERATIONAL", "geometry": {"location": {"lat": 53.8965021, "lng": 27.53779899999999}, "viewport": {"northeast": {"lat": 53.8979045302915, "lng": 27.5387574802915}, "southwest": {"lat": 53.8952065697085, "lng": 27.53605951970849}}}, "icon": "https://maps.gstatic.com/mapfiles/place_api/icons/v1/png_71/generic_business-71.png", "icon_background_color": "#7B9EB0", "icon_mask_base_uri": "https://maps.gstatic.com/mapfiles/place_api/icons/v2/generic_pinlet", "name": "Plo\u0161\u010da Franci\u0161ka Bahu\u0161evi\u010da", "photos": [{"height": 3120, "html_attributions": ["<a href=\"https://maps.google.com/maps/contrib/104639374378819532944\">\u042e\u043b\u0438\u044f \u0410\u043d\u0434\u0440\u0435\u0435\u0432\u0430</a>"], "photo_reference": "AdDdOWp2HlXM0stxPZ1ksSz_0HYv6zHdDdNpL1Rf9cmELwk4Ey4Q0kgyyYn6xOiM7xKloqMbFCWPjMLxtA0PR-OELjh55_h7YOc2NphbGhY2iLTuf5mJwcUCGr6CtpsgzA2djHX0fI9CPYjOBQP17BWmiA1jZMsQN7za2dtw0vvPBW9SBghi", "width": 4160}], "place_id": "ChIJlRxESuTP20YRho_Wy68KZig", "plus_code": {"compound_code": "VGWQ+J4 Minsk, Belarus", "global_code": "9G59VGWQ+J4"}, "rating": 4.1, "reference": "ChIJlRxESuTP20YRho_Wy68KZig", "scope": "GOOGLE", "types": ["subway_station", "transit_station", "point_of_interest", "establishment"], "user_ratings_total": 12, "vicinity": "Belarus"}, {"business_status": "OPERATIONAL", "geometry": {"location": {"lat": 53.88600799999999, "lng": 27.540818}, "viewport": {"northeast": {"lat": 53.88724089999999, "lng": 27.54256045}, "southwest": {"lat": 53.8838289, "lng": 27.53559064999999}}}, "icon": "https://maps.gstatic.com/mapfiles/place_api/icons/v1/png_71/generic_business-71.png", "icon_background_color": "#7B9EB0", "icon_mask_base_uri": "https://maps.gstatic.com/mapfiles/place_api/icons/v2/generic_pinlet", "name": "Institute of Culture", "photos": [{"height": 614, "html_attributions": ["<a href=\"https://maps.google.com/maps/contrib/105787138803370507444\">Nikita Murdasov</a>"], "photo_reference": "AdDdOWr-9WrwLJz6HkPxBM5PmYrjddArZpOmxS1QJWpj5ab5hJDVSyesGUtY5bA2nMFJyqtUZy5CniWhSxgl4iotc_uaOczwvywkxVpXCqueKlAlpjylafvnBucPEGXnRHz4ZGGAeS-9y7t_gAKsnW9qbJITterSeNPqJMlJMFlZqNLJTSys", "width": 927}], "place_id": "ChIJYRxfGyDQ20YRCqtfk7R1nnc", "plus_code": {"compound_code": "VGPR+C8 Minsk, Belarus", "global_code": "9G59VGPR+C8"}, "rating": 4.3, "reference": "ChIJYRxfGyDQ20YRCqtfk7R1nnc", "scope": "GOOGLE", "types": ["subway_station", "transit_station", "point_of_interest", "establishment"], "user_ratings_total": 86, "vicinity": "Vulica Sura\u017eskaja, Minsk"}, {"business_status": "OPERATIONAL", "geometry": {"location": {"lat": 53.8903462, "lng": 27.5459}, "viewport": {"northeast": {"lat": 53.8911164302915, "lng": 27.5482205}, "southwest": {"lat": 53.8884184697085, "lng": 27.5451265}}}, "icon": "https://maps.gstatic.com/mapfiles/place_api/icons/v1/png_71/generic_business-71.png", "icon_background_color": "#7B9EB0", "icon_mask_base_uri": "https://maps.gstatic.com/mapfiles/place_api/icons/v2/generic_pinlet", "name": "Vakza\u013anaja", "photos": [{"height": 2976, "html_attributions": ["<a href=\"https://maps.google.com/maps/contrib/111352143313771421863\">\u041c\u0430\u043a\u0441\u0438\u043c</a>"], "photo_reference": "AdDdOWpCujcq-q6lCetU3uqKpf-TsyKBxwiB3ZToEucCnY1eMFulY_HX3mMAkiZq_1DisQpNXzeenX3psDt1_Px02rFNsrEUk5ka7-zKZooZ7kfBXS9XSMlpDhMZLujnxRRmFwjQKlQz6qyLt0-OWioYfdLU6N7kcPS6Cy4Ms7daas8V1D7s", "width": 3968}], "place_id": "ChIJz-MnFN7P20YRgFLF7CAWcFY", "plus_code": {"compound_code": "VGRW+49 Minsk, Belarus", "global_code": "9G59VGRW+49"}, "rating": 4.5, "reference": "ChIJz-MnFN7P20YRgFLF7CAWcFY", "scope": "GOOGLE", "types": ["subway_station", "transit_station", "point_of_interest", "establishment"], "user_ratings_total": 21, "vicinity": "Belarus"}, {"business_status": "OPERATIONAL", "geometry": {"location": {"lat": 53.892894, "lng": 27.547886}, "viewport": {"northeast": {"lat": 53.8939019802915, "lng": 27.5497687802915}, "southwest": {"lat": 53.8912040197085, "lng": 27.5470708197085}}}, "icon": "https://maps.gstatic.com/mapfiles/place_api/icons/v1/png_71/generic_business-71.png", "icon_background_color": "#7B9EB0", "icon_mask_base_uri": "https://maps.gstatic.com/mapfiles/place_api/icons/v2/generic_pinlet", "name": "Plo\u0161\u010da Lienina", "photos": [{"height": 6379, "html_attributions": ["<a href=\"https://maps.google.com/maps/contrib/104101425674290531188\">Liavontsi Ananka</a>"], "photo_reference": "AdDdOWqaFMGkpmP6Mf_RpTwXusGzdQgezMv62ahBhbEVdtGpHd8VNtrZqPOlQNnLhoMe6U9JD-imIYzG_BeESNuTPtqCH3gkh56Py6CE_dC8SplhywA38atzlif87p1j3VVaxF3B9MoG80-1IjJmxzD-VVo38fcO_7aIhblRV2c4G2bhCcVA", "width": 8506}], "place_id": "ChIJqzKSk-fP20YR_9fTtPaQtuY", "plus_code": {"compound_code": "VGVX+55 Minsk, Belarus", "global_code": "9G59VGVX+55"}, "rating": 4.5, "reference": "ChIJqzKSk-fP20YR_9fTtPaQtuY", "scope": "GOOGLE", "types": ["subway_station", "transit_station", "point_of_interest", "establishment"], "user_ratings_total": 231, "vicinity": "praspiekt Niezalie\u017enasci 6, Minsk"}, {"business_status": "OPERATIONAL", "geometry": {"location": {"lat": 53.905959, "lng": 27.554065}, "viewport": {"northeast": {"lat": 53.9070026802915, "lng": 27.5551299802915}, "southwest": {"lat": 53.9043047197085, "lng": 27.5524320197085}}}, "icon": "https://maps.gstatic.com/mapfiles/place_api/icons/v1/png_71/generic_business-71.png", "icon_background_color": "#7B9EB0", "icon_mask_base_uri": "https://maps.gstatic.com/mapfiles/place_api/icons/v2/generic_pinlet", "name": "Niamiha", "photos": [{"height": 1124, "html_attributions": ["<a href=\"https://maps.google.com/maps/contrib/110630681299150126577\">Daumantas Kviklys</a>"], "photo_reference": "AdDdOWpwFcDKpXYB44VQ_kOF7wdwt5ySI8MzTwJBko86ovjJ5i6QdIz9ikREHKuFR5qjxzkZQbZ9LlvUNm4EYsuxmZlnTSyb2LkDxY-rJKlR3SXQmNLV8ValIHEjfdkXleQovXhkk4WTgEP4JUZOGiFayoJRa5FqGR6MR_m4iHGf4lSXYIhg", "width": 2000}], "place_id": "ChIJjUQ0R-vP20YR34v7zgTVplU", "plus_code": {"compound_code": "WH43+9J Minsk, Belarus", "global_code": "9G59WH43+9J"}, "rating": 4.7, "reference": "ChIJjUQ0R-vP20YR34v7zgTVplU", "scope": "GOOGLE", "types": ["subway_station", "transit_station", "point_of_interest", "establishment"], "user_ratings_total": 298, "vicinity": "Minsk"}, {"business_status": "OPERATIONAL", "geometry": {"location": {"lat": 53.87710500000001, "lng": 27.549555}, "viewport": {"northeast": {"lat": 53.8785446302915, "lng": 27.5511129802915}, "southwest": {"lat": 53.8758466697085, "lng": 27.5484150197085}}}, "icon": "https://maps.gstatic.com/mapfiles/place_api/icons/v1/png_71/generic_business-71.png", "icon_background_color": "#7B9EB0", "icon_mask_base_uri": "https://maps.gstatic.com/mapfiles/place_api/icons/v2/generic_pinlet", "name": "Kava\u013askaja Slabada", "photos": [{"height": 6936, "html_attributions": ["<a href=\"https://maps.google.com/maps/contrib/104101425674290531188\">Liavontsi Ananka</a>"], "photo_reference": "AdDdOWowq3OlU3vpZHOa5OI-sgaZQwebxXpx6D2Vgd58NxYoXjZayiUmrphQHS3nw3BoNwqi2trnTOvA9O7CkPQEghjtJIprRgHTzNLQOplrUjyM5akziZtknwQTEMTik_d-6jr_iWE6jtsY8fkuIlh9vaDGr_TzZKjqYVkxrVkQByPHYtj_", "width": 9248}], "place_id": "ChIJ4-c47yXQ20YRD9YhTDroNw8", "plus_code": {"compound_code": "VGGX+RR Minsk, Belarus", "global_code": "9G59VGGX+RR"}, "rating": 4, "reference": "ChIJ4-c47yXQ20YRD9YhTDroNw8", "scope": "GOOGLE", "types": ["subway_station", "transit_station", "point_of_interest", "establishment"], "user_ratings_total": 31, "vicinity": "Belarus"}, {"business_status": "OPERATIONAL", "geometry": {"location": {"lat": 53.902128, "lng": 27.562308}, "viewport": {"northeast": {"lat": 53.9034207802915, "lng": 27.56472205}, "southwest": {"lat": 53.9007228197085, "lng": 27.55961265}}}, "icon": "https://maps.gstatic.com/mapfiles/place_api/icons/v1/png_71/generic_business-71.png", "icon_background_color": "#7B9EB0", "icon_mask_base_uri": "https://maps.gstatic.com/mapfiles/place_api/icons/v2/generic_pinlet", "name": "Kastry\u010dnickaja", "photos": [{"height": 1800, "html_attributions": ["<a href=\"https://maps.google.com/maps/contrib/105347665285354978466\">M</a>"], "photo_reference": "AdDdOWohL7KYgLFXmk9XYYibiLDTIaQT1Uwh2WOI6o2IBOeLMJ2RYUjM36rTdcV0FSZ67LWSglnxyzzzXQSnElXiLjCmK6HTeSBn71i1ryyzqbyXAFslBCQXEisU7FCsTjFxq4PL6vMgTFYW887AueouFe5B1-ArbERaglF1ECvo2-Un3yfj", "width": 3175}], "place_id": "ChIJxW1DU8DP20YR-8sRbC8VHAE", "plus_code": {"compound_code": "WH26+VW Minsk, Belarus", "global_code": "9G59WH26+VW"}, "rating": 4.4, "reference": "ChIJxW1DU8DP20YR-8sRbC8VHAE", "scope": "GOOGLE", "types": ["subway_station", "transit_station", "point_of_interest", "establishment"], "user_ratings_total": 151, "vicinity": "praspekt Niezalie\u017enasci, Minsk"}, {"business_status": "OPERATIONAL", "geometry": {"location": {"lat": 53.900968, "lng": 27.562077}, "viewport": {"northeast": {"lat": 53.9021508802915, "lng": 27.56361635}, "southwest": {"lat": 53.8994529197085, "lng": 27.55745895}}}, "icon": "https://maps.gstatic.com/mapfiles/place_api/icons/v1/png_71/generic_business-71.png", "icon_background_color": "#7B9EB0", "icon_mask_base_uri": "https://maps.gstatic.com/mapfiles/place_api/icons/v2/generic_pinlet", "name": "Kupalovskaya", "photos": [{"height": 614, "html_attributions": ["<a href=\"https://maps.google.com/maps/contrib/105787138803370507444\">Nikita Murdasov</a>"], "photo_reference": "AdDdOWongdJP4jnknMiRR5tl5Vc0-fOXbCvY8N2SZL8Q0tjyP2lyEIYacbx-vtDEV2OT2RfjjpezW6WrAZIel2cQgcP8O0M5R_ya8SuuBJBuJTBY8vH_x7GAYn-Kp40zVoindIM5JptmAd3gQTnhpcNDb9NMSo0zJrr2CAKermucEYHaN3WP", "width": 927}], "place_id": "ChIJE61HCsHP20YRKaJAS0G66Eo", "plus_code": {"compound_code": "WH26+9R Minsk, Belarus", "global_code": "9G59WH26+9R"}, "rating": 4.4, "reference": "ChIJE61HCsHP20YRKaJAS0G66Eo", "scope": "GOOGLE", "types": ["subway_station", "transit_station", "point_of_interest", "establishment"], "user_ratings_total": 97, "vicinity": "vulica Enhie\u013asa, Minsk"}], "status": "OK"}