{"html_attributions": [], "next_page_token": "AdDdOWpCu7SShIsSKIssofInchjXZFkvp4dotcY8sR_wKE5LQtaejdneSvjl7AGAVtqEBTbTtwiO8Aml-XBmI3LOGxu9q2A6r1HjIg4-XFkIGeA4LdhkUWBvkb4lFResv6v82ETIS-DcmaAF4NkFmdQZ62ZnVhMkX0RKPVxEIYOToVcctoCDTd-jGfbv5JQfyEVsVLFwg8-r7mFI99U_1JTcP6iZ_cXgYg--yJjTm9LxaqUbFEMC3MpD9_mgitlcpQ5soWsT_l85BpaKVBnSOrtdorKBnX3pxfjrhcfrnPMnLeHNq0cViuLz9gi7FYXIe9pPKFA90Od1TZ2EnoGZbuF_pPmZSS6w222PgRvENd_7UpD4zJSNinEO21IFZXaROKk7cjp7qlmYT4KWi_zudhBc_0GDeDF8cHZ2Y6UpQvXGw9ckWChy7XwgZposK1NMK9OAYg", "results": [{"business_status": "OPERATIONAL", "geometry": {"location": {"lat": 53.921685, "lng": 27.59904999999999}, "viewport": {"northeast": {"lat": 53.92277148029149, "lng": 27.5997439802915}, "southwest": {"lat": 53.9200735197085, "lng": 27.59704601970849}}}, "icon": "https://maps.gstatic.com/mapfiles/place_api/icons/v1/png_71/generic_business-71.png", "icon_background_color": "#7B9EB0", "icon_mask_base_uri": "https://maps.gstatic.com/mapfiles/place_api/icons/v2/generic_pinlet", "name": "Akademija navuk", "photos": [{"height": 3456, "html_attributions": ["<a href=\"https://maps.google.com/maps/contrib/113074657166952512027\">\u041c\u0430\u043a\u0441\u0438\u043c \u0428\u0438\u0448\u043f\u043e\u0440\u043e\u043d\u043e\u043a</a>"], "photo_reference": "AdDdOWou-tumtwqdrg7K2PuFEn_XJkHEGBsRILGK8miZertRBtPXEVpNC7hfY7BLD4F7bZ7mj-OKeVUBGg3d1W3dKEiY-FwgKUtGRj5lgDbRiAuO_a2Gg6HH6AbqAtZrckyeMX5IxnSzq8Ek57krZmFM9EyPLO8OLDzFMU_gkAguePSYy87T", "width": 4608}], "place_id": "ChIJrUJvZQjP20YRzF55Vi3lRA0", "plus_code": {"compound_code": "WHCX+MJ Minsk, Belarus", "global_code": "9G59WHCX+MJ"}, "rating": 4.5, "reference": "ChIJrUJvZQjP20YRzF55Vi3lRA0", "scope": "GOOGLE", "types": ["subway_station", "transit_station", "point_of_interest", "establishment"], "user_ratings_total": 108, "vicinity": "praspiekt Niezalie\u017enasci, Minsk"}, {"business_status": "OPERATIONAL", "geometry": {"location": {"lat": 53.84985500000001, "lng": 27.474805}, "viewport": {"northeast": {"lat": 53.8510472802915, "lng": 27.4758449802915}, "southwest": {"lat": 53.8483493197085, "lng": 27.4731470197085}}}, "icon": "https://maps.gstatic.com/mapfiles/place_api/icons/v1/png_71/generic_business-71.png", "icon_background_color": "#7B9EB0", "icon_mask_base_uri": "https://maps.gstatic.com/mapfiles/place_api/icons/v2/generic_pinlet", "name": "Malina\u016dka", "photos": [{"height": 3456, "html_attributions": ["<a href=\"https://maps.google.com/maps/contrib/113074657166952512027\">\u041c\u0430\u043a\u0441\u0438\u043c \u0428\u0438\u0448\u043f\u043e\u0440\u043e\u043d\u043e\u043a</a>"], "photo_reference": "AdDdOWoJm2TPqBID8cYjIQbxtdJoEc7UrPbyl5Biu7JSLPvJ7weRRzYPnAlEGh1RH_OD6UjUXfjGpBswT10f3VXvx-TR54kU2LFQT8_jDMDBGAwyhf_iZqR2uong6356V7Ks7t4ss_VG09NPUIYa5fWbRHSy49TRu8ngL2PBdaiwRLbGq0ix", "width": 4608}], "place_id": "ChIJdTnSzIXQ20YRnDfubLatSPs", "plus_code": {"compound_code": "RFXF+WW Minsk, Belarus", "global_code": "9G59RFXF+WW"}, "rating": 4.5, "reference": "ChIJdTnSzIXQ20YRnDfubLatSPs", "scope": "GOOGLE", "types": ["subway_station", "transit_station", "point_of_interest", "establishment"], "user_ratings_total": 151, "vicinity": "Minsk"}, {"business_status": "OPERATIONAL", "geometry": {"location": {"lat": 53.864859, "lng": 27.486301}, "viewport": {"northeast": {"lat": 53.8664484802915, "lng": 27.4878229302915}, "southwest": {"lat": 53.8637505197085, "lng": 27.4851249697085}}}, "icon": "https://maps.gstatic.com/mapfiles/place_api/icons/v1/png_71/generic_business-71.png", "icon_background_color": "#7B9EB0", "icon_mask_base_uri": "https://maps.gstatic.com/mapfiles/place_api/icons/v2/generic_pinlet", "name": "\u041f\u044f\u0442\u0440\u043e\u045e\u0448\u0447\u044b\u043d\u0430", "photos": [{"height": 1840, "html_attributions": ["<a href=\"https://maps.google.com/maps/contrib/100598176989705519331\">\u0421\u0435\u0440\u0433\u0435\u0439 \u041a</a>"], "photo_reference": "AdDdOWrgymPpdtrNA4Q1TIR1RHtiKS2OpuHbAT05mhmk1DR2Q82ftsTOqAHkCxGT2FvmWRbL0nfPj8k8A4WU3uxXpajrx5HANwf9zIaKnR1nyVSqv5P1goR26t2obKP-jIDo5XbxOHtHoJCFtZO3dS4vA4jJtz8C3q9CAkd2elj-_XrD61Y8", "width": 3264}], "place_id": "ChIJwUi38XnQ20YRpv4uASupDWw", "plus_code": {"compound_code": "VF7P+WG Minsk, Belarus", "global_code": "9G59VF7P+WG"}, "rating": 4.6, "reference": "ChIJwUi38XnQ20YRpv4uASupDWw", "scope": "GOOGLE", "types": ["subway_station", "transit_station", "point_of_interest", "establishment"], "user_ratings_total": 166, "vicinity": "Praspiekt Dziar\u017eynskaha, Minsk"}, {"business_status": "OPERATIONAL", "geometry": {"location": {"lat": 53.876753, "lng": 27.496935}, "viewport": {"northeast": {"lat": 53.8782470302915, "lng": 27.4985484802915}, "southwest": {"lat": 53.8755490697085, "lng": 27.4958505197085}}}, "icon": "https://maps.gstatic.com/mapfiles/place_api/icons/v1/png_71/generic_business-71.png", "icon_background_color": "#7B9EB0", "icon_mask_base_uri": "https://maps.gstatic.com/mapfiles/place_api/icons/v2/generic_pinlet", "name": "Michalova", "photos": [{"height": 3024, "html_attributions": ["<a href=\"https://maps.google.com/maps/contrib/101462476942404507166\">Andrew Ew</a>"], "photo_reference": "AdDdOWq_faT5cpoNxu7kYXiCbmOi16m0CRsFh3xwR9hrQriq5_cuSYFh29f-Yt67GRi6e1FPb-XEisK6lDJDyeFbCq51EdgXtH7L-91tY1flZfWCTyYmbErvpRE-C8aheB7Q6DQm9IL9NnwbGd_yg40dDZyc5HAcYhzyCeH6G7eHOk7v4e4B", "width": 4032}], "place_id": "ChIJRc9upwvQ20YRw4NuymCW_7c", "plus_code": {"compound_code": "VFGW+PQ Minsk, Belarus", "global_code": "9G59VFGW+PQ"}, "rating": 4.4, "reference": "ChIJRc9upwvQ20YRw4NuymCW_7c", "scope": "GOOGLE", "types": ["subway_station", "transit_station", "point_of_interest", "establishment"], "user_ratings_total": 76, "vicinity": "\u0443\u043b\u0438\u0446\u0430 \u0413\u0443\u0440\u0441\u043a\u043e\u0433\u043e, Minsk"}, {"business_status": "OPERATIONAL", "geometry": {"location": {"lat": 53.88655929999999, "lng": 27.5140795}, "viewport": {"northeast": {"lat": 53.8880383302915, "lng": 27.5160622302915}, "southwest": {"lat": 53.88534036970851, "lng": 27.51336426970849}}}, "icon": "https://maps.gstatic.com/mapfiles/place_api/icons/v1/png_71/generic_business-71.png", "icon_background_color": "#7B9EB0", "icon_mask_base_uri": "https://maps.gstatic.com/mapfiles/place_api/icons/v2/generic_pinlet", "name": "\u0413\u0440\u0443\u0448\u0430\u045e\u043a\u0430", "photos": [{"height": 2869, "html_attributions": ["<a href=\"https://maps.google.com/maps/contrib/107659758104191198653\">Alexander Polomodov</a>"], "photo_reference": "AdDdOWp_VLMZTNMSCve5Q6g6DPCFM07uaIVjCoy6FM4i3F6l9FyqW5X8MwTfBBnnkLno9G-RxNKOj7qy4H40STqFoV8RF4SVhkzZrnWOAT0-sfk57Vv21jBJjpjCeW-559q6cLa9t1Ry4PfeAKalcSUd0VKf9xrnmm7By2xhfgwPKyJe6TU_", "width": 4590}], "place_id": "ChIJt8o_ewTQ20YRY6Tonp5Xf30", "plus_code": {"compound_code": "VGP7+JJ Minsk, Belarus", "global_code": "9G59VGP7+JJ"}, "rating": 4.4, "reference": "ChIJt8o_ewTQ20YRY6Tonp5Xf30", "scope": "GOOGLE", "types": ["subway_station", "transit_station", "point_of_interest", "establishment"], "user_ratings_total": 90, "vicinity": "\u0433\u0434\u0435 \u0440\u0430\u0441\u043f\u043e\u043b\u043e\u0436\u0435\u043d\u0430 \u0443\u043b.\u0422\u0438\u043c\u0438\u0440\u044f\u0437\u0435\u0432\u0441\u043a\u0430\u044f \u0438 \u043d\u0430 \u043a\u0430\u043a\u043e\u043c \u0442\u0440\u0430\u043d\u0441\u043f\u043e\u0440\u0442\u0435 \u043c\u043e\u0436\u043d\u043e \u0434\u043e\u0435\u0445\u0430\u0442\u044c, \u0432\u0443\u043b\u0456\u0446\u0430 \u0428\u0447\u043e\u0440\u0441\u0430, \u041c\u0456\u043d\u0441\u043a"}, {"business_status": "OPERATIONAL", "geometry": {"location": {"lat": 53.87710500000001, "lng": 27.549555}, "viewport": {"northeast": {"lat": 53.8785446302915, "lng": 27.5511129802915}, "southwest": {"lat": 53.8758466697085, "lng": 27.5484150197085}}}, "icon": "https://maps.gstatic.com/mapfiles/place_api/icons/v1/png_71/generic_business-71.png", "icon_background_color": "#7B9EB0", "icon_mask_base_uri": "https://maps.gstatic.com/mapfiles/place_api/icons/v2/generic_pinlet", "name": "Kava\u013askaja Slabada", "photos": [{"height": 6936, "html_attributions": ["<a href=\"https://maps.google.com/maps/contrib/104101425674290531188\">Liavontsi Ananka</a>"], "photo_reference": "AdDdOWpJEhX4egxuEIVQzJ4hDyhcTZej6b9zPhU9E3riEL6jcVFA3bEMe8vmbCoT9CS0T5YLuhmKcqMXfpbr4Q3pcWVNgQou-Lm3J9fRU8URmcwuHYBchFuz_MLeLqX21Q6Aivigy6SyvA97Zw8D_sN0PSGSkKOiT7OdBchKo42XmmxQBK_1", "width": 9248}], "place_id": "ChIJ4-c47yXQ20YRD9YhTDroNw8", "plus_code": {"compound_code": "VGGX+RR Minsk, Belarus", "global_code": "9G59VGGX+RR"}, "rating": 4, "reference": "ChIJ4-c47yXQ20YRD9YhTDroNw8", "scope": "GOOGLE", "types": ["subway_station", "transit_station", "point_of_interest", "establishment"], "user_ratings_total": 31, "vicinity": "Belarus"}, {"business_status": "OPERATIONAL", "geometry": {"location": {"lat": 53.88600799999999, "lng": 27.540818}, "viewport": {"northeast": {"lat": 53.88724089999999, "lng": 27.54256045}, "southwest": {"lat": 53.8838289, "lng": 27.53559064999999}}}, "icon": "https://maps.gstatic.com/mapfiles/place_api/icons/v1/png_71/generic_business-71.png", "icon_background_color": "#7B9EB0", "icon_mask_base_uri": "https://maps.gstatic.com/mapfiles/place_api/icons/v2/generic_pinlet", "name": "Institute of Culture", "photos": [{"height": 614, "html_attributions": ["<a href=\"https://maps.google.com/maps/contrib/105787138803370507444\">Nikita Murdasov</a>"], "photo_reference": "AdDdOWrau0AMYmOU1UGF0C4IsAx0em1lbkFGlVlZj2Mllb4D4ybWN5xPP857w3wwB8LGmLP05DSckPwk-Qa_-mA7FpcM374qqgtPDGwDWUpyjwuP0yWAgioQGfIg7ZdoaSQmvbOE1ZQKFyajiEKlGnFZqjI129K2M-U-LkXWhIYR9-cpFsLa", "width": 927}], "place_id": "ChIJYRxfGyDQ20YRCqtfk7R1nnc", "plus_code": {"compound_code": "VGPR+C8 Minsk, Belarus", "global_code": "9G59VGPR+C8"}, "rating": 4.3, "reference": "ChIJYRxfGyDQ20YRCqtfk7R1nnc", "scope": "GOOGLE", "types": ["subway_station", "transit_station", "point_of_interest", "establishment"], "user_ratings_total": 86, "vicinity": "Vulica Sura\u017eskaja, Minsk"}, {"business_status": "OPERATIONAL", "geometry": {"location": {"lat": 53.906292, "lng": 27.453945}, "viewport": {"northeast": {"lat": 53.90770648029149, "lng": 27.4552608302915}, "southwest": {"lat": 53.9050085197085, "lng": 27.4525628697085}}}, "icon": "https://maps.gstatic.com/mapfiles/place_api/icons/v1/png_71/generic_business-71.png", "icon_background_color": "#7B9EB0", "icon_mask_base_uri": "https://maps.gstatic.com/mapfiles/place_api/icons/v2/generic_pinlet", "name": "Kunca\u016d\u0161\u010dyna", "photos": [{"height": 3456, "html_attributions": ["<a href=\"https://maps.google.com/maps/contrib/107659758104191198653\">Alexander Polomodov</a>"], "photo_reference": "AdDdOWoKlJDetnWCvteE4omadZ2s40JR4HU2S8S7b7yDcjgrNYzh6MJ6x4D8H1C1OIS_o-o3Qwa1K3TI_T4bJMi0PJbyLyFVj6rtRhaLqWAow3SD584rrOU0Mv7iM9txLXXjkIKwk8-oSehxOtFzT2vaGRLhM6rre8SwAsWZtxLlmy3nJ0Oe", "width": 4608}], "place_id": "ChIJQRz1JtPa20YRTrAjxcsRXJk", "plus_code": {"compound_code": "WF43+GH Minsk, Belarus", "global_code": "9G59WF43+GH"}, "rating": 4.3, "reference": "ChIJQRz1JtPa20YRTrAjxcsRXJk", "scope": "GOOGLE", "types": ["subway_station", "transit_station", "point_of_interest", "establishment"], "user_ratings_total": 69, "vicinity": "vulica Prytyckaha, Minsk"}, {"business_status": "OPERATIONAL", "geometry": {"location": {"lat": 53.8903462, "lng": 27.5459}, "viewport": {"northeast": {"lat": 53.8911164302915, "lng": 27.5482205}, "southwest": {"lat": 53.8884184697085, "lng": 27.5451265}}}, "icon": "https://maps.gstatic.com/mapfiles/place_api/icons/v1/png_71/generic_business-71.png", "icon_background_color": "#7B9EB0", "icon_mask_base_uri": "https://maps.gstatic.com/mapfiles/place_api/icons/v2/generic_pinlet", "name": "Vakza\u013anaja", "photos": [{"height": 2976, "html_attributions": ["<a href=\"https://maps.google.com/maps/contrib/111352143313771421863\">\u041c\u0430\u043a\u0441\u0438\u043c</a>"], "photo_reference": "AdDdOWrhkyaNeVvIllyH8PC5jQDXzWlaF2LNsPh6PSvYkdNrOxEABtyTW0vvoIOSe1VMyFokUEuhiwxQehSv49iVDzu6nLoN7MlEH-b653scn-iOmu67oGNXlfeDkupd_ISLSjL0xdSJlgItj5V1Qa38an3tTVLwBLkr1U460r9n0KjKIqDL", "width": 3968}], "place_id": "ChIJz-MnFN7P20YRgFLF7CAWcFY", "plus_code": {"compound_code": "VGRW+49 Minsk, Belarus", "global_code": "9G59VGRW+49"}, "rating": 4.5, "reference": "ChIJz-MnFN7P20YRgFLF7CAWcFY", "scope": "GOOGLE", "types": ["subway_station", "transit_station", "point_of_interest", "establishment"], "user_ratings_total": 21, "vicinity": "Belarus"}, {"business_status": "OPERATIONAL", "geometry": {"location": {"lat": 53.906873, "lng": 27.437634}, "viewport": {"northeast": {"lat": 53.9082920302915, "lng": 27.44175194999999}, "southwest": {"lat": 53.9055940697085, "lng": 27.43265255000001}}}, "icon": "https://maps.gstatic.com/mapfiles/place_api/icons/v1/png_71/generic_business-71.png", "icon_background_color": "#7B9EB0", "icon_mask_base_uri": "https://maps.gstatic.com/mapfiles/place_api/icons/v2/generic_pinlet", "name": "Kamiennaja Horka", "photos": [{"height": 547, "html_attributions": ["<a href=\"https://maps.google.com/maps/contrib/105787138803370507444\">Nikita Murdasov</a>"], "photo_reference": "AdDdOWprteEohqeSTpAcjX6JP0jtmC8DGWnoLSHM34Mu_lSZjbmYF0t58C4tcaRsWCEnGVa7xYOTY2dbVKT_CJawXzXZ94jygCMg2mcE6RZbiIBnZSasLKzmEVnTPNLhnQGtJkR8MoGtz7Fj-7mOjIGrwnCljn9i0XtF7bVItF_QDCLSr0Y1", "width": 820}], "place_id": "ChIJGQnpIirb20YRiFxPwj98oTQ", "plus_code": {"compound_code": "WC4Q+P3 Minsk, Belarus", "global_code": "9G59WC4Q+P3"}, "rating": 4.4, "reference": "ChIJGQnpIirb20YRiFxPwj98oTQ", "scope": "GOOGLE", "types": ["subway_station", "transit_station", "point_of_interest", "establishment"], "user_ratings_total": 189, "vicinity": "vulica Prytyckaha, Minsk"}, {"business_status": "OPERATIONAL", "geometry": {"location": {"lat": 53.9085393, "lng": 27.480908}, "viewport": {"northeast": {"lat": 53.90985313029149, "lng": 27.4821105802915}, "southwest": {"lat": 53.9071551697085, "lng": 27.4794126197085}}}, "icon": "https://maps.gstatic.com/mapfiles/place_api/icons/v1/png_71/generic_business-71.png", "icon_background_color": "#7B9EB0", "icon_mask_base_uri": "https://maps.gstatic.com/mapfiles/place_api/icons/v2/generic_pinlet", "name": "Sparty\u016dnaja", "photos": [{"height": 2448, "html_attributions": ["<a href=\"https://maps.google.com/maps/contrib/104035404819719278247\">ted ted</a>"], "photo_reference": "AdDdOWqU9gBBZpz0r8xwenOhlDs9z5vjaY_r2YqZNhgjh2ZTEWPDnDiBLGuX_gRfYqGSypAGNzSltoq-1s63MgTmQ7UPzZMKU_8E4q6vylhLfYE6VcuvcaOWIdU8-AIpwTLnXGSZ9FWLkh27vbJXyyKT5m9qUUtAOk53N8X8vTjlQ_sfQ4SJ", "width": 3264}], "place_id": "ChIJlQ0JcDbF20YRMSibJQEWb20", "plus_code": {"compound_code": "WF5J+C9 Minsk, Belarus", "global_code": "9G59WF5J+C9"}, "rating": 4.4, "reference": "ChIJlQ0JcDbF20YRMSibJQEWb20", "scope": "GOOGLE", "types": ["subway_station", "transit_station", "point_of_interest", "establishment"], "user_ratings_total": 86, "vicinity": "vulica Prytyckaha, Minsk"}, {"business_status": "OPERATIONAL", "geometry": {"location": {"lat": 53.8965021, "lng": 27.53779899999999}, "viewport": {"northeast": {"lat": 53.8979045302915, "lng": 27.5387574802915}, "southwest": {"lat": 53.8952065697085, "lng": 27.53605951970849}}}, "icon": "https://maps.gstatic.com/mapfiles/place_api/icons/v1/png_71/generic_business-71.png", "icon_background_color": "#7B9EB0", "icon_mask_base_uri": "https://maps.gstatic.com/mapfiles/place_api/icons/v2/generic_pinlet", "name": "Plo\u0161\u010da Franci\u0161ka Bahu\u0161evi\u010da", "photos": [{"height": 3120, "html_attributions": ["<a href=\"https://maps.google.com/maps/contrib/104639374378819532944\">\u042e\u043b\u0438\u044f \u0410\u043d\u0434\u0440\u0435\u0435\u0432\u0430</a>"], "photo_reference": "AdDdOWqnLl7beh69C6QWhkHbtspCCJjoua1zdSETyOSAS-ZZXYQ1HZOwBR6B7tJVN86YVLO9FY79aJNvnoQv5gG32OwQIIKraUCPt3YXdHlZuWPMCKuACkbkjGTTeL1UKj-0hasm6PgO9DGa-6reDXNTZf3a5_YDYd3Mjn7Bw8xOUnZrwY4J", "width": 4160}], "place_id": "ChIJlRxESuTP20YRho_Wy68KZig", "plus_code": {"compound_code": "VGWQ+J4 Minsk, Belarus", "global_code": "9G59VGWQ+J4"}, "rating": 4.1, "reference": "ChIJlRxESuTP20YRho_Wy68KZig", "scope": "GOOGLE", "types": ["subway_station", "transit_station", "point_of_interest", "establishment"], "user_ratings_total": 12, "vicinity": "Belarus"}, {"business_status": "OPERATIONAL", "geometry": {"location": {"lat": 53.892894, "lng": 27.547886}, "viewport": {"northeast": {"lat": 53.8939019802915, "lng": 27.5497687802915}, "southwest": {"lat": 53.8912040197085, "lng": 27.5470708197085}}}, "icon": "https://maps.gstatic.com/mapfiles/place_api/icons/v1/png_71/generic_business-71.png", "icon_background_color": "#7B9EB0", "icon_mask_base_uri": "https://maps.gstatic.com/mapfiles/place_api/icons/v2/generic_pinlet", "name": "Plo\u0161\u010da Lienina", "photos": [{"height": 6379, "html_attributions": ["<a href=\"https://maps.google.com/maps/contrib/104101425674290531188\">Liavontsi Ananka</a>"], "photo_reference": "AdDdOWoVsayepN5zh2lfsANVRgh_HuTA_zCgW4JsU7SinNVNhWxxlpnnMw2agCoHCJfjFl-Jx7rEzaQiuic5I0hCfzniws6P-hKTz48pYEShhZ2XY0-EShmE3K-H01267AEh3oQg8RevcoXKl5hN5DdY3jp__HRvub5s8nwhs_PIj4SnkgFd", "width": 8506}], "place_id": "ChIJqzKSk-fP20YR_9fTtPaQtuY", "plus_code": {"compound_code": "VGVX+55 Minsk, Belarus", "global_code": "9G59VGVX+55"}, "rating": 4.5, "reference": "ChIJqzKSk-fP20YR_9fTtPaQtuY", "scope": "GOOGLE", "types": ["subway_station", "transit_station", "point_of_interest", "establishment"], "user_ratings_total": 231, "vicinity": "praspiekt Niezalie\u017enasci 6, Minsk"}, {"business_status": "OPERATIONAL", "geometry": {"location": {"lat": 53.90964899999999, "lng": 27.497429}, "viewport": {"northeast": {"lat": 53.91085218029151, "lng": 27.50005964999999}, "southwest": {"lat": 53.90815421970851, "lng": 27.49329705000001}}}, "icon": "https://maps.gstatic.com/mapfiles/place_api/icons/v1/png_71/generic_business-71.png", "icon_background_color": "#7B9EB0", "icon_mask_base_uri": "https://maps.gstatic.com/mapfiles/place_api/icons/v2/generic_pinlet", "name": "Pu\u0161kinskaja", "photos": [{"height": 620, "html_attributions": ["<a href=\"https://maps.google.com/maps/contrib/105787138803370507444\">Nikita Murdasov</a>"], "photo_reference": "AdDdOWrNM2F61LKYc0odO7JUGXRoMBzwPL3GoTHf2rtG3d6WgagPwUXVTcTN_yJxlWzsomie0PQxubIZ0wyVuIHtnAfPE9VTnEhG40CWRXg3Q4FI4a32b1QhYLY08B1oexcX-kh-lXaojmdslagiz25qhVbtLymlaaOhozyDvOjufNoY762O", "width": 927}], "place_id": "ChIJ2SY18UXF20YRNEwSbGKjWGg", "plus_code": {"compound_code": "WF5W+VX Minsk, Belarus", "global_code": "9G59WF5W+VX"}, "rating": 4.5, "reference": "ChIJ2SY18UXF20YRNEwSbGKjWGg", "scope": "GOOGLE", "types": ["subway_station", "transit_station", "point_of_interest", "establishment"], "user_ratings_total": 126, "vicinity": "Minsk"}, {"business_status": "OPERATIONAL", "geometry": {"location": {"lat": 53.906799, "lng": 27.522678}, "viewport": {"northeast": {"lat": 53.9079829302915, "lng": 27.5235178802915}, "southwest": {"lat": 53.9052849697085, "lng": 27.5208199197085}}}, "icon": "https://maps.gstatic.com/mapfiles/place_api/icons/v1/png_71/generic_business-71.png", "icon_background_color": "#7B9EB0", "icon_mask_base_uri": "https://maps.gstatic.com/mapfiles/place_api/icons/v2/generic_pinlet", "name": "Maladzio\u017enaja", "photos": [{"height": 796, "html_attributions": ["<a href=\"https://maps.google.com/maps/contrib/105787138803370507444\">Nikita Murdasov</a>"], "photo_reference": "AdDdOWrGusayUs_2x_dtuxbJ0XetXdrWU_M3MpsHvJn6npMjPjPzTEO_x9HFNi9bn473h_3FVDjq00c8PDSuKYEQnP9aM_umiMWpCqUp_UC0ZX-E6YNhAmxEAA1-eOhs2oXUHRv0ttukCgokvhUhM2FEPx98lMfKBXEiI4n3idP1EyIdPp-T", "width": 1202}], "place_id": "ChIJPYXpKfbP20YRjEwxeGKKAVk", "plus_code": {"compound_code": "WG4F+P3 Minsk, Belarus", "global_code": "9G59WG4F+P3"}, "rating": 4.4, "reference": "ChIJPYXpKfbP20YRjEwxeGKKAVk", "scope": "GOOGLE", "types": ["subway_station", "transit_station", "point_of_interest", "establishment"], "user_ratings_total": 45, "vicinity": "Pier\u0161y Zaharadny zavulak, Minsk"}, {"business_status": "OPERATIONAL", "geometry": {"location": {"lat": 53.90426009999999, "lng": 27.539911}, "viewport": {"northeast": {"lat": 53.9058744302915, "lng": 27.5414910802915}, "southwest": {"lat": 53.90317646970851, "lng": 27.5387931197085}}}, "icon": "https://maps.gstatic.com/mapfiles/place_api/icons/v1/png_71/generic_business-71.png", "icon_background_color": "#7B9EB0", "icon_mask_base_uri": "https://maps.gstatic.com/mapfiles/place_api/icons/v2/generic_pinlet", "name": "Jubiliejnaja plo\u0161\u010da", "photos": [{"height": 667, "html_attributions": ["<a href=\"https://maps.google.com/maps/contrib/105787138803370507444\">Nikita Murdasov</a>"], "photo_reference": "AdDdOWoODPz2QKKkMdFXmxv4qxEbSRhqNFZWwBRLHqkkTjF5B9HzMjyvJILb8o8_Wxqptn6taFqcr6uPyORXoM72tgbLHIhK8aQRcNuI1vD68LB1IlePGLPHO5M2jlSXD9LldjihH7sCYJZ_4471sLSAsOthnBxHqhh8CLneGHE1Fz6anKzm", "width": 1000}], "place_id": "ChIJ7767Ae7P20YRFRzg1Mk0dc4", "plus_code": {"compound_code": "WG3Q+PX Minsk, Belarus", "global_code": "9G59WG3Q+PX"}, "rating": 4.4, "reference": "ChIJ7767Ae7P20YRFRzg1Mk0dc4", "scope": "GOOGLE", "types": ["subway_station", "transit_station", "point_of_interest", "establishment"], "user_ratings_total": 16, "vicinity": "Belarus"}, {"business_status": "OPERATIONAL", "geometry": {"location": {"lat": 53.905235, "lng": 27.53922}, "viewport": {"northeast": {"lat": 53.9066061802915, "lng": 27.54260455}, "southwest": {"lat": 53.9039082197085, "lng": 27.53630635}}}, "icon": "https://maps.gstatic.com/mapfiles/place_api/icons/v1/png_71/generic_business-71.png", "icon_background_color": "#7B9EB0", "icon_mask_base_uri": "https://maps.gstatic.com/mapfiles/place_api/icons/v2/generic_pinlet", "name": "Frunzienskaja", "photos": [{"height": 601, "html_attributions": ["<a href=\"https://maps.google.com/maps/contrib/105787138803370507444\">Nikita Murdasov</a>"], "photo_reference": "AdDdOWqIYMeLIYJxbf7yS_VHz1O75uS9TsHRxG-O0cl8DBmgfpDBw5GKum-ZtBXMI6Q1BlN_NRbbt3HMm88sBwb4shb6LgQQhL8cV0ZKspun7NpVq6Ux4eaWw5WArfIHUZLgyqv5Z9q_lKCWob2AIn7uFwnFLcr3b0jk3WpvMnlNaJqOcTZ2", "width": 927}], "place_id": "ChIJ6c1IGvLP20YRCZ6Mll6-dqI", "plus_code": {"compound_code": "WG4Q+3M Minsk, Belarus", "global_code": "9G59WG4Q+3M"}, "rating": 4.6, "reference": "ChIJ6c1IGvLP20YRCZ6Mll6-dqI", "scope": "GOOGLE", "types": ["subway_station", "transit_station", "point_of_interest", "establishment"], "user_ratings_total": 89, "vicinity": "vulica Ka\u013avaryjskaja, Minsk"}, {"business_status": "OPERATIONAL", "geometry": {"location": {"lat": 53.89381400000001, "lng": 27.571049}, "viewport": {"northeast": {"lat": 53.8951561802915, "lng": 27.5721685302915}, "southwest": {"lat": 53.8924582197085, "lng": 27.5694705697085}}}, "icon": "https://maps.gstatic.com/mapfiles/place_api/icons/v1/png_71/generic_business-71.png", "icon_background_color": "#7B9EB0", "icon_mask_base_uri": "https://maps.gstatic.com/mapfiles/place_api/icons/v2/generic_pinlet", "name": "Pier\u0161amajskaja", "photos": [{"height": 628, "html_attributions": ["<a href=\"https://maps.google.com/maps/contrib/105787138803370507444\">Nikita Murdasov</a>"], "photo_reference": "AdDdOWpkbamAUdLSxCnjnP8NBAf8brwWL0C5q2zNS8sTWOyZli7yrt4CJxv-vCRU-MdVSVoITCfW-1ByOrWFdw4dS2MCk45vWrAI6KhWGyhpAvcc_2zPiemskkQsZkZAtRf4W_A9CRQXnpKGc75tP4xvhcxhE8Qi_K_nE-qySAUfQF-xFmEa", "width": 950}], "place_id": "ChIJb5Tcgs_P20YRGSn9Wlh5C2c", "plus_code": {"compound_code": "VHVC+GC Minsk, Belarus", "global_code": "9G59VHVC+GC"}, "rating": 4.4, "reference": "ChIJb5Tcgs_P20YRGSn9Wlh5C2c", "scope": "GOOGLE", "types": ["subway_station", "transit_station", "point_of_interest", "establishment"], "user_ratings_total": 75, "vicinity": "Minsk"}, {"business_status": "OPERATIONAL", "geometry": {"location": {"lat": 53.900968, "lng": 27.562077}, "viewport": {"northeast": {"lat": 53.9021508802915, "lng": 27.56361635}, "southwest": {"lat": 53.8994529197085, "lng": 27.55745895}}}, "icon": "https://maps.gstatic.com/mapfiles/place_api/icons/v1/png_71/generic_business-71.png", "icon_background_color": "#7B9EB0", "icon_mask_base_uri": "https://maps.gstatic.com/mapfiles/place_api/icons/v2/generic_pinlet", "name": "Kupalovskaya", "photos": [{"height": 614, "html_attributions": ["<a href=\"https://maps.google.com/maps/contrib/105787138803370507444\">Nikita Murdasov</a>"], "photo_reference": "AdDdOWo3kU1S3dU2JVFssnXGHE6m3O4sDYQEb0cJ0vq039ExBmPP5h_j5ihtV1xUP98QoDK5AOm8BrWo9ghRr5SB7OJpI1FYtVyQlJWakkR638Tbml9oqIUhqUpUbwivbX8OrVhYljqnKf3jOKv5UeRygtkmswNUkSiudSK91Em6r4JM8OQm", "width": 927}], "place_id": "ChIJE61HCsHP20YRKaJAS0G66Eo", "plus_code": {"compound_code": "WH26+9R Minsk, Belarus", "global_code": "9G59WH26+9R"}, "rating": 4.4, "reference": "ChIJE61HCsHP20YRKaJAS0G66Eo", "scope": "GOOGLE", "types": ["subway_station", "transit_station", "point_of_interest", "establishment"], "user_ratings_total": 97, "vicinity": "vulica Enhie\u013asa, Minsk"}, {"business_status": "OPERATIONAL", "geometry": {"location": {"lat": 53.902128, "lng": 27.562308}, "viewport": {"northeast": {"lat": 53.9034207802915, "lng": 27.56472205}, "southwest": {"lat": 53.9007228197085, "lng": 27.55961265}}}, "icon": "https://maps.gstatic.com/mapfiles/place_api/icons/v1/png_71/generic_business-71.png", "icon_background_color": "#7B9EB0", "icon_mask_base_uri": "https://maps.gstatic.com/mapfiles/place_api/icons/v2/generic_pinlet", "name": "Kastry\u010dnickaja", "photos": [{"height": 1800, "html_attributions": ["<a href=\"https://maps.google.com/maps/contrib/105347665285354978466\">M</a>"], "photo_reference": "AdDdOWrOasau4AieVsai9fY4ZXgxSoiyXszFgJAxdD4Vo6LGb_xT4pwH0HyeEtnBBMUIuPvM-XEkZjT6mDNp1TDKPv6QKrctHNU9LYfzApD2sHhTbDxCl1UfEDvzDBgxn6VNc4MtDO77I1CwcCacOi-QJS6wtKgX_Ow_7zIkOwbcTD80mE-J", "width": 3175}], "place_id": "ChIJxW1DU8DP20YR-8sRbC8VHAE", "plus_code": {"compound_code": "WH26+VW Minsk, Belarus", "global_code": "9G59WH26+VW"}, "rating": 4.4, "reference": "ChIJxW1DU8DP20YR-8sRbC8VHAE", "scope": "GOOGLE", "types": ["subway_station", "transit_station", "point_of_interest", "establishment"], "user_ratings_total": 151, "vicinity": "praspekt Niezalie\u017enasci, Minsk"}], "status": "OK"}