{"html_attributions": [], "next_page_token": "AdDdOWrtsPjY_UjJA713slQumVr-phNv5tQhcuoFQho5vA4I2N3JrSte-sdE_DWAq0b1a7VZ-Ht547OJdAxe8qqo83ERG8XD83DuKxXXOfxrf_DOOGNIFSI4EshQT82GrwiSgNRn2Z-jNbqTUJ5-DvJXUHzVAvvrGYzdnIIGIFI-zp7Aoda3Py8Ve0iAzOCMK1kbKMb8G-RlOC4XeDjfCf99PTBHfRXr-y2_N0NArSlgav3dV9chg-PiYVjWO_RwS_PoqESGutfqTzZb3Ji6JEB2KI3B7N4oVOGJP9z6ZrULiMhpi8RLk-k1V2EQwjJ30S8BrLVn1IuobCTW6PHBEetY7fxD9GtJb9gL_b9cwOeyiMa6DNpu-X4e_KC4BM-qhtNDmcLHEzWsgB1llPctVxDrgICisbXbfp7eGxv21K2_PXgiKBlWtxGMHTA-T13_7wsd1w", "results": [{"business_status": "OPERATIONAL", "geometry": {"location": {"lat": 53.921685, "lng": 27.59904999999999}, "viewport": {"northeast": {"lat": 53.92277148029149, "lng": 27.5997439802915}, "southwest": {"lat": 53.9200735197085, "lng": 27.59704601970849}}}, "icon": "https://maps.gstatic.com/mapfiles/place_api/icons/v1/png_71/generic_business-71.png", "icon_background_color": "#7B9EB0", "icon_mask_base_uri": "https://maps.gstatic.com/mapfiles/place_api/icons/v2/generic_pinlet", "name": "Akademija navuk", "photos": [{"height": 3456, "html_attributions": ["<a href=\"https://maps.google.com/maps/contrib/113074657166952512027\">\u041c\u0430\u043a\u0441\u0438\u043c \u0428\u0438\u0448\u043f\u043e\u0440\u043e\u043d\u043e\u043a</a>"], "photo_reference": "AdDdOWpdnxrCwdLzpdY2yDWgzIJz21Ye5e7kuhJSibPRmfu0awOnLrpIMA8RItjJWQDquwusKpD3zDJH_tDnMzML0Ya7gUkxcMocglNzAR60Wp9hKpWFL_6gC3tNj9DOac0vF2Q2TsGvqw7olb1RebVB9EBmDZmcTrEDaalksGsC64g6_GQU", "width": 4608}], "place_id": "ChIJrUJvZQjP20YRzF55Vi3lRA0", "plus_code": {"compound_code": "WHCX+MJ Minsk, Belarus", "global_code": "9G59WHCX+MJ"}, "rating": 4.5, "reference": "ChIJrUJvZQjP20YRzF55Vi3lRA0", "scope": "GOOGLE", "types": ["subway_station", "transit_station", "point_of_interest", "establishment"], "user_ratings_total": 108, "vicinity": "praspiekt Niezalie\u017enasci, Minsk"}, {"business_status": "OPERATIONAL", "geometry": {"location": {"lat": 53.900968, "lng": 27.562077}, "viewport": {"northeast": {"lat": 53.9021508802915, "lng": 27.56361635}, "southwest": {"lat": 53.8994529197085, "lng": 27.55745895}}}, "icon": "https://maps.gstatic.com/mapfiles/place_api/icons/v1/png_71/generic_business-71.png", "icon_background_color": "#7B9EB0", "icon_mask_base_uri": "https://maps.gstatic.com/mapfiles/place_api/icons/v2/generic_pinlet", "name": "Kupalovskaya", "photos": [{"height": 614, "html_attributions": ["<a href=\"https://maps.google.com/maps/contrib/105787138803370507444\">Nikita Murdasov</a>"], "photo_reference": "AdDdOWrc0qcIxofG4cSfuGxj9vV_pMlP4pnUGZ-uCnCAE1lShT2hfpBBPyx2HiIA6uYLq4wNkz5nxjRz1jMLAfFE3_Id6ptquM4hnvecCjUCbCRFoZXVAdfjwFOBacDuvdwzj9n3bdBfeuDo-N2yI2Oh-qn0et8cjm-cZbFZfsbA3hV4QGhA", "width": 927}], "place_id": "ChIJE61HCsHP20YRKaJAS0G66Eo", "plus_code": {"compound_code": "WH26+9R Minsk, Belarus", "global_code": "9G59WH26+9R"}, "rating": 4.4, "reference": "ChIJE61HCsHP20YRKaJAS0G66Eo", "scope": "GOOGLE", "types": ["subway_station", "transit_station", "point_of_interest", "establishment"], "user_ratings_total": 97, "vicinity": "vulica Enhie\u013asa, Minsk"}, {"business_status": "OPERATIONAL", "geometry": {"location": {"lat": 53.902128, "lng": 27.562308}, "viewport": {"northeast": {"lat": 53.9034207802915, "lng": 27.56472205}, "southwest": {"lat": 53.9007228197085, "lng": 27.55961265}}}, "icon": "https://maps.gstatic.com/mapfiles/place_api/icons/v1/png_71/generic_business-71.png", "icon_background_color": "#7B9EB0", "icon_mask_base_uri": "https://maps.gstatic.com/mapfiles/place_api/icons/v2/generic_pinlet", "name": "Kastry\u010dnickaja", "photos": [{"height": 1800, "html_attributions": ["<a href=\"https://maps.google.com/maps/contrib/105347665285354978466\">M</a>"], "photo_reference": "AdDdOWpzvNiuh8TgyQBFIS8frCMHem2-M55COFNji3wAovmyxamVEQmW5QhV081gWkybaU1tkRSEAbNfc6_mGCxcUS-EmZIcMM1aT148GSg1iXOHPB84ZP5KQOa9QqX403-9XJa3UrD-IqLwCxX9DBfbbv4R-M_3xgWt243y3y6tL-SDnxqq", "width": 3175}], "place_id": "ChIJxW1DU8DP20YR-8sRbC8VHAE", "plus_code": {"compound_code": "WH26+VW Minsk, Belarus", "global_code": "9G59WH26+VW"}, "rating": 4.4, "reference": "ChIJxW1DU8DP20YR-8sRbC8VHAE", "scope": "GOOGLE", "types": ["subway_station", "transit_station", "point_of_interest", "establishment"], "user_ratings_total": 151, "vicinity": "praspekt Niezalie\u017enasci, Minsk"}, {"business_status": "OPERATIONAL", "geometry": {"location": {"lat": 53.905959, "lng": 27.554065}, "viewport": {"northeast": {"lat": 53.9070026802915, "lng": 27.5551299802915}, "southwest": {"lat": 53.9043047197085, "lng": 27.5524320197085}}}, "icon": "https://maps.gstatic.com/mapfiles/place_api/icons/v1/png_71/generic_business-71.png", "icon_background_color": "#7B9EB0", "icon_mask_base_uri": "https://maps.gstatic.com/mapfiles/place_api/icons/v2/generic_pinlet", "name": "Niamiha", "photos": [{"height": 1124, "html_attributions": ["<a href=\"https://maps.google.com/maps/contrib/110630681299150126577\">Daumantas Kviklys</a>"], "photo_reference": "AdDdOWqtHA_ne-NKGk6lu0auiGQJ1ky9v6Eut9ObxKiFPp1CP6m9_YSf4Vp8U8Dq7XHw7GgEKBgYEyvknRvaMx14yD3Cb4DX-B4JqH1v1p9Vnw3BpTx7pIPbsT_im3YtTWuKCICN7ciQLsdo8l32cRpWWlR63nxrlHiei_yrwKnicxh6OmVn", "width": 2000}], "place_id": "ChIJjUQ0R-vP20YR34v7zgTVplU", "plus_code": {"compound_code": "WH43+9J Minsk, Belarus", "global_code": "9G59WH43+9J"}, "rating": 4.7, "reference": "ChIJjUQ0R-vP20YR34v7zgTVplU", "scope": "GOOGLE", "types": ["subway_station", "transit_station", "point_of_interest", "establishment"], "user_ratings_total": 298, "vicinity": "Minsk"}, {"business_status": "OPERATIONAL", "geometry": {"location": {"lat": 53.89381400000001, "lng": 27.571049}, "viewport": {"northeast": {"lat": 53.8951561802915, "lng": 27.5721685302915}, "southwest": {"lat": 53.8924582197085, "lng": 27.5694705697085}}}, "icon": "https://maps.gstatic.com/mapfiles/place_api/icons/v1/png_71/generic_business-71.png", "icon_background_color": "#7B9EB0", "icon_mask_base_uri": "https://maps.gstatic.com/mapfiles/place_api/icons/v2/generic_pinlet", "name": "Pier\u0161amajskaja", "photos": [{"height": 628, "html_attributions": ["<a href=\"https://maps.google.com/maps/contrib/105787138803370507444\">Nikita Murdasov</a>"], "photo_reference": "AdDdOWoPbiJ_1gJuXTQIIfvDfpSJthfZLhSQmEGCkxMc9STFAmMY3aIsHOb7cGnLDbnvBghR_QNF2Mffw70X2B-ams9Cm9efqCmV63e579yaGN78seYDKcrVEkPcd9SkWLqIPuglC7h-Lr-hW1bpDo4hM_HAQ_IKS4HxSdKejTFJlEFPQCUM", "width": 950}], "place_id": "ChIJb5Tcgs_P20YRGSn9Wlh5C2c", "plus_code": {"compound_code": "VHVC+GC Minsk, Belarus", "global_code": "9G59VHVC+GC"}, "rating": 4.4, "reference": "ChIJb5Tcgs_P20YRGSn9Wlh5C2c", "scope": "GOOGLE", "types": ["subway_station", "transit_station", "point_of_interest", "establishment"], "user_ratings_total": 75, "vicinity": "Minsk"}, {"business_status": "OPERATIONAL", "geometry": {"location": {"lat": 53.892894, "lng": 27.547886}, "viewport": {"northeast": {"lat": 53.8939019802915, "lng": 27.5497687802915}, "southwest": {"lat": 53.8912040197085, "lng": 27.5470708197085}}}, "icon": "https://maps.gstatic.com/mapfiles/place_api/icons/v1/png_71/generic_business-71.png", "icon_background_color": "#7B9EB0", "icon_mask_base_uri": "https://maps.gstatic.com/mapfiles/place_api/icons/v2/generic_pinlet", "name": "Plo\u0161\u010da Lienina", "photos": [{"height": 6379, "html_attributions": ["<a href=\"https://maps.google.com/maps/contrib/104101425674290531188\">Liavontsi Ananka</a>"], "photo_reference": "AdDdOWov9tKcZ9w3-0-wwzIYmKMJV0IEOiODqQcYWKuDPFCD_hcjShI4wjo0SzvkC4EqRfMGvGWv2JUh9H8Gj3zlu-QZJ_agP8ORxOjBsnZBGVL5dgnntGcZvZEqb_EXEAYwFypXhk0Iuf_zJmaTJsZ1InDF-KvM8Px0ifQsZkykK0MUs3X7", "width": 8506}], "place_id": "ChIJqzKSk-fP20YR_9fTtPaQtuY", "plus_code": {"compound_code": "VGVX+55 Minsk, Belarus", "global_code": "9G59VGVX+55"}, "rating": 4.5, "reference": "ChIJqzKSk-fP20YR_9fTtPaQtuY", "scope": "GOOGLE", "types": ["subway_station", "transit_station", "point_of_interest", "establishment"], "user_ratings_total": 231, "vicinity": "praspiekt Niezalie\u017enasci 6, Minsk"}, {"business_status": "OPERATIONAL", "geometry": {"location": {"lat": 53.90426009999999, "lng": 27.539911}, "viewport": {"northeast": {"lat": 53.9058744302915, "lng": 27.5414910802915}, "southwest": {"lat": 53.90317646970851, "lng": 27.5387931197085}}}, "icon": "https://maps.gstatic.com/mapfiles/place_api/icons/v1/png_71/generic_business-71.png", "icon_background_color": "#7B9EB0", "icon_mask_base_uri": "https://maps.gstatic.com/mapfiles/place_api/icons/v2/generic_pinlet", "name": "Jubiliejnaja plo\u0161\u010da", "photos": [{"height": 667, "html_attributions": ["<a href=\"https://maps.google.com/maps/contrib/105787138803370507444\">Nikita Murdasov</a>"], "photo_reference": "AdDdOWoB1W2Rk9UMLO760M_dFf2jJyYltw-o7TSSZ1cL5nb1t7yfUVc6rgoQKL6Ig4Hhfw162lQyPtb8uU3d83utuucjKyuwNzl84NmoktTPyjjAiSDvpUlZUJ6UWqH41PdTccTXw3G4TcdtHPtCLpOUqKmjKyijlfdtTTRzfN_DO7QLJ-AC", "width": 1000}], "place_id": "ChIJ7767Ae7P20YRFRzg1Mk0dc4", "plus_code": {"compound_code": "WG3Q+PX Minsk, Belarus", "global_code": "9G59WG3Q+PX"}, "rating": 4.4, "reference": "ChIJ7767Ae7P20YRFRzg1Mk0dc4", "scope": "GOOGLE", "types": ["subway_station", "transit_station", "point_of_interest", "establishment"], "user_ratings_total": 16, "vicinity": "Belarus"}, {"business_status": "OPERATIONAL", "geometry": {"location": {"lat": 53.905235, "lng": 27.53922}, "viewport": {"northeast": {"lat": 53.9066061802915, "lng": 27.54260455}, "southwest": {"lat": 53.9039082197085, "lng": 27.53630635}}}, "icon": "https://maps.gstatic.com/mapfiles/place_api/icons/v1/png_71/generic_business-71.png", "icon_background_color": "#7B9EB0", "icon_mask_base_uri": "https://maps.gstatic.com/mapfiles/place_api/icons/v2/generic_pinlet", "name": "Frunzienskaja", "photos": [{"height": 601, "html_attributions": ["<a href=\"https://maps.google.com/maps/contrib/105787138803370507444\">Nikita Murdasov</a>"], "photo_reference": "AdDdOWowm4QzxJ8GVFXk6OKvRahDRBw-MhJ8V4B4zvUDw2V7Xdqk_tWyA4Zat8EN2owh_jHsqd2sS2pUnbO13Mu1FA6GUxaBQmL_7zXy4q700ly5ZpJYso2aft78mSRzCbO99QMJGfzWoiRHgKiIuU8TqFD24inqkxnqVmEJi4AYk-mcH5xZ", "width": 927}], "place_id": "ChIJ6c1IGvLP20YRCZ6Mll6-dqI", "plus_code": {"compound_code": "WG4Q+3M Minsk, Belarus", "global_code": "9G59WG4Q+3M"}, "rating": 4.6, "reference": "ChIJ6c1IGvLP20YRCZ6Mll6-dqI", "scope": "GOOGLE", "types": ["subway_station", "transit_station", "point_of_interest", "establishment"], "user_ratings_total": 89, "vicinity": "vulica Ka\u013avaryjskaja, Minsk"}, {"business_status": "OPERATIONAL", "geometry": {"location": {"lat": 53.8903462, "lng": 27.5459}, "viewport": {"northeast": {"lat": 53.8911164302915, "lng": 27.5482205}, "southwest": {"lat": 53.8884184697085, "lng": 27.5451265}}}, "icon": "https://maps.gstatic.com/mapfiles/place_api/icons/v1/png_71/generic_business-71.png", "icon_background_color": "#7B9EB0", "icon_mask_base_uri": "https://maps.gstatic.com/mapfiles/place_api/icons/v2/generic_pinlet", "name": "Vakza\u013anaja", "photos": [{"height": 2976, "html_attributions": ["<a href=\"https://maps.google.com/maps/contrib/111352143313771421863\">\u041c\u0430\u043a\u0441\u0438\u043c</a>"], "photo_reference": "AdDdOWoGWXcQOnsm5YlMfIDJE2NyjtIQbLTaXSLKYYEeaQ54zbxFbAzrmw3OM4LtFjG4sRUiRBLdF0iohCwNiWju5cfX_Hed6VYrmF4eRCzhJeJNleId5HUAXPWubJk6iZniSpvWcWH_IzgKdjUp-dNgf-tYurD6yTEi75LKTrXAZM-BFKUx", "width": 3968}], "place_id": "ChIJz-MnFN7P20YRgFLF7CAWcFY", "plus_code": {"compound_code": "VGRW+49 Minsk, Belarus", "global_code": "9G59VGRW+49"}, "rating": 4.5, "reference": "ChIJz-MnFN7P20YRgFLF7CAWcFY", "scope": "GOOGLE", "types": ["subway_station", "transit_station", "point_of_interest", "establishment"], "user_ratings_total": 21, "vicinity": "Belarus"}, {"business_status": "OPERATIONAL", "geometry": {"location": {"lat": 53.8965021, "lng": 27.53779899999999}, "viewport": {"northeast": {"lat": 53.8979045302915, "lng": 27.5387574802915}, "southwest": {"lat": 53.8952065697085, "lng": 27.53605951970849}}}, "icon": "https://maps.gstatic.com/mapfiles/place_api/icons/v1/png_71/generic_business-71.png", "icon_background_color": "#7B9EB0", "icon_mask_base_uri": "https://maps.gstatic.com/mapfiles/place_api/icons/v2/generic_pinlet", "name": "Plo\u0161\u010da Franci\u0161ka Bahu\u0161evi\u010da", "photos": [{"height": 3120, "html_attributions": ["<a href=\"https://maps.google.com/maps/contrib/104639374378819532944\">\u042e\u043b\u0438\u044f \u0410\u043d\u0434\u0440\u0435\u0435\u0432\u0430</a>"], "photo_reference": "AdDdOWoxM720X90Jh1SjvDZDcAnkXbUyHaZlWfBw0Mg6qQJ2qRq-nJPdlD-v7i2nbSs0AHcWdLMdLRmd8_H1IYOSS31n1t9rreFvrVQqDNxLudbGV7Q1mO4uJ2G8RZdH333lXy-lULEhm5qUX1aA7B9MOJGfBljv2FWg7Kg35HSswmRy2bxk", "width": 4160}], "place_id": "ChIJlRxESuTP20YRho_Wy68KZig", "plus_code": {"compound_code": "VGWQ+J4 Minsk, Belarus", "global_code": "9G59VGWQ+J4"}, "rating": 4.1, "reference": "ChIJlRxESuTP20YRho_Wy68KZig", "scope": "GOOGLE", "types": ["subway_station", "transit_station", "point_of_interest", "establishment"], "user_ratings_total": 12, "vicinity": "Belarus"}, {"business_status": "OPERATIONAL", "geometry": {"location": {"lat": 53.90954699999999, "lng": 27.576316}, "viewport": {"northeast": {"lat": 53.91028079999999, "lng": 27.57728615}, "southwest": {"lat": 53.90734560000001, "lng": 27.57340554999999}}}, "icon": "https://maps.gstatic.com/mapfiles/place_api/icons/v1/png_71/generic_business-71.png", "icon_background_color": "#7B9EB0", "icon_mask_base_uri": "https://maps.gstatic.com/mapfiles/place_api/icons/v2/generic_pinlet", "name": "Victory Square", "photos": [{"height": 5961, "html_attributions": ["<a href=\"https://maps.google.com/maps/contrib/104101425674290531188\">Liavontsi Ananka</a>"], "photo_reference": "AdDdOWo_ZeIfQYh-EK6-M1nJIg88YtFU35vp2vZRMU2Gm7gkm6PZrHxXT_MoAAhcXd_Wr-We4-nZHjNQoRQkAnFcneduUMHHjV_TGgv3GyunXbD_WU2LuyoIPtyPfJpX8I02Kw4ndxowpzXo3imnNpIM-5P-L-hq-qqmtZOVhgPHEqW3odZ4", "width": 7948}], "place_id": "ChIJkWga-rvP20YRfmK6BaPfSzE", "plus_code": {"compound_code": "WH5G+RG Minsk, Belarus", "global_code": "9G59WH5G+RG"}, "rating": 4.6, "reference": "ChIJkWga-rvP20YRfmK6BaPfSzE", "scope": "GOOGLE", "types": ["subway_station", "transit_station", "point_of_interest", "establishment"], "user_ratings_total": 198, "vicinity": "praspiekt Niezalie\u017enasci, Minsk"}, {"business_status": "OPERATIONAL", "geometry": {"location": {"lat": 53.88600799999999, "lng": 27.540818}, "viewport": {"northeast": {"lat": 53.88724089999999, "lng": 27.54256045}, "southwest": {"lat": 53.8838289, "lng": 27.53559064999999}}}, "icon": "https://maps.gstatic.com/mapfiles/place_api/icons/v1/png_71/generic_business-71.png", "icon_background_color": "#7B9EB0", "icon_mask_base_uri": "https://maps.gstatic.com/mapfiles/place_api/icons/v2/generic_pinlet", "name": "Institute of Culture", "photos": [{"height": 614, "html_attributions": ["<a href=\"https://maps.google.com/maps/contrib/105787138803370507444\">Nikita Murdasov</a>"], "photo_reference": "AdDdOWqU2Y4PYGUPH5j2TWNV4v4QrZgnstbZVGtZ9J5FxYyhNIHClY0V3ehQAKil2C5lCyD7aZ6Mt4z7cAzos3OGBjqQe_BkXqtTCtvmMbkrYSyhzSGv41SMrJyrQitkgA-Q29OADqfccAToDQHLoz_G7qB5-HashytiJEuXfnF4CAHcXlEg", "width": 927}], "place_id": "ChIJYRxfGyDQ20YRCqtfk7R1nnc", "plus_code": {"compound_code": "VGPR+C8 Minsk, Belarus", "global_code": "9G59VGPR+C8"}, "rating": 4.3, "reference": "ChIJYRxfGyDQ20YRCqtfk7R1nnc", "scope": "GOOGLE", "types": ["subway_station", "transit_station", "point_of_interest", "establishment"], "user_ratings_total": 86, "vicinity": "Vulica Sura\u017eskaja, Minsk"}, {"business_status": "OPERATIONAL", "geometry": {"location": {"lat": 53.8896031, "lng": 27.5854794}, "viewport": {"northeast": {"lat": 53.8922542, "lng": 27.58682955000001}, "southwest": {"lat": 53.88871939999999, "lng": 27.58399454999999}}}, "icon": "https://maps.gstatic.com/mapfiles/place_api/icons/v1/png_71/generic_business-71.png", "icon_background_color": "#7B9EB0", "icon_mask_base_uri": "https://maps.gstatic.com/mapfiles/place_api/icons/v2/generic_pinlet", "name": "Pralietarskaja", "photos": [{"height": 614, "html_attributions": ["<a href=\"https://maps.google.com/maps/contrib/105787138803370507444\">Nikita Murdasov</a>"], "photo_reference": "AdDdOWp6PB7xdJ1NSliNfx6niYH9uAPK12erZMwZtDNVZqMS1O7nlDEgNpJ2WT5nKubuHMW50FvpM1lDRsZqW3R2CEui_fB0S3sSVjokMmv-pJ-NwPsUhXsztkG5cC72FNbeP_ne6-uka8wLuCsoe-CZ4Tdt3mr_gkB87_LW8Zg-sozpHZnx", "width": 927}], "place_id": "ChIJ0Te50zLO20YR6NfEWBBNB9Y", "plus_code": {"compound_code": "VHQP+R5 Minsk, Belarus", "global_code": "9G59VHQP+R5"}, "rating": 4.3, "reference": "ChIJ0Te50zLO20YR6NfEWBBNB9Y", "scope": "GOOGLE", "types": ["subway_station", "transit_station", "point_of_interest", "establishment"], "user_ratings_total": 55, "vicinity": "Minsk"}, {"business_status": "OPERATIONAL", "geometry": {"location": {"lat": 53.915947, "lng": 27.584242}, "viewport": {"northeast": {"lat": 53.91731049999999, "lng": 27.5874513}, "southwest": {"lat": 53.91457729999999, "lng": 27.5802245}}}, "icon": "https://maps.gstatic.com/mapfiles/place_api/icons/v1/png_71/generic_business-71.png", "icon_background_color": "#7B9EB0", "icon_mask_base_uri": "https://maps.gstatic.com/mapfiles/place_api/icons/v2/generic_pinlet", "name": "Plo\u0161\u010da Jakuba Kolasa", "photos": [{"height": 3000, "html_attributions": ["<a href=\"https://maps.google.com/maps/contrib/116433741259729707234\">\u0418\u043d\u0435\u0441\u0441\u0430 \u0411\u044b\u0441\u0442\u0440\u043e\u0432\u0430</a>"], "photo_reference": "AdDdOWqjz_GNx3skN__e0txsgSvUuJl4J4ne-NBAYy6oPgsB3c-ll9VP24MkpKNxfG6Vh_Z9ZRpea8gBW74cdPtbewno8QrqaNPDAtm5v8BRrYAYCKGFyf6XWuzyLs-TN1eMzLybNZotMSQeN-A9hmUg4nrbh194Tn4dv_mLjVNUk-v4DG-y", "width": 3000}], "place_id": "ChIJaTZ2i6PP20YRuL87-2ak2UQ", "plus_code": {"compound_code": "WH8M+9M Minsk, Belarus", "global_code": "9G59WH8M+9M"}, "rating": 4.4, "reference": "ChIJaTZ2i6PP20YRuL87-2ak2UQ", "scope": "GOOGLE", "types": ["subway_station", "transit_station", "point_of_interest", "establishment"], "user_ratings_total": 150, "vicinity": "vulica Jakuba Kolasa, Minsk"}, {"business_status": "OPERATIONAL", "geometry": {"location": {"lat": 53.906799, "lng": 27.522678}, "viewport": {"northeast": {"lat": 53.9079829302915, "lng": 27.5235178802915}, "southwest": {"lat": 53.9052849697085, "lng": 27.5208199197085}}}, "icon": "https://maps.gstatic.com/mapfiles/place_api/icons/v1/png_71/generic_business-71.png", "icon_background_color": "#7B9EB0", "icon_mask_base_uri": "https://maps.gstatic.com/mapfiles/place_api/icons/v2/generic_pinlet", "name": "Maladzio\u017enaja", "photos": [{"height": 796, "html_attributions": ["<a href=\"https://maps.google.com/maps/contrib/105787138803370507444\">Nikita Murdasov</a>"], "photo_reference": "AdDdOWpLCoRb-oXxQZEJc-RluczIr-BAbUOk3yS3GR6nmbAzgkiKwRuKqtDxxVBBQdcyuHdgH0yLWCHXF13m45JP-0t2UrK9Ksdz3TCuXvYJQlqsr9acwcUEF47rAQl26cuh-FRmnsFaM7zaBXOg1F5O3m9SpjZISAfpR7rRUbzqlXNgH93-", "width": 1202}], "place_id": "ChIJPYXpKfbP20YRjEwxeGKKAVk", "plus_code": {"compound_code": "WG4F+P3 Minsk, Belarus", "global_code": "9G59WG4F+P3"}, "rating": 4.4, "reference": "ChIJPYXpKfbP20YRjEwxeGKKAVk", "scope": "GOOGLE", "types": ["subway_station", "transit_station", "point_of_interest", "establishment"], "user_ratings_total": 45, "vicinity": "Pier\u0161y Zaharadny zavulak, Minsk"}, {"business_status": "OPERATIONAL", "geometry": {"location": {"lat": 53.87710500000001, "lng": 27.549555}, "viewport": {"northeast": {"lat": 53.8785446302915, "lng": 27.5511129802915}, "southwest": {"lat": 53.8758466697085, "lng": 27.5484150197085}}}, "icon": "https://maps.gstatic.com/mapfiles/place_api/icons/v1/png_71/generic_business-71.png", "icon_background_color": "#7B9EB0", "icon_mask_base_uri": "https://maps.gstatic.com/mapfiles/place_api/icons/v2/generic_pinlet", "name": "Kava\u013askaja Slabada", "photos": [{"height": 6936, "html_attributions": ["<a href=\"https://maps.google.com/maps/contrib/104101425674290531188\">Liavontsi Ananka</a>"], "photo_reference": "AdDdOWqRTOE2VOVyJtLqE-KCqt9oLC7ku6zdwN2ju8H-I2f_ItpQROBl8xaa-irGk0SHk-hLQyAHvCMXTMkrGo2H69pB8edIF4e723wA-HMIih8BWao1qbidOX9QIErb4PBXvIAlZJSJThpxGjyDjLM07Y1G3NA3v9bvptRC8eS99b25Nq5t", "width": 9248}], "place_id": "ChIJ4-c47yXQ20YRD9YhTDroNw8", "plus_code": {"compound_code": "VGGX+RR Minsk, Belarus", "global_code": "9G59VGGX+RR"}, "rating": 4, "reference": "ChIJ4-c47yXQ20YRD9YhTDroNw8", "scope": "GOOGLE", "types": ["subway_station", "transit_station", "point_of_interest", "establishment"], "user_ratings_total": 31, "vicinity": "Belarus"}, {"business_status": "OPERATIONAL", "geometry": {"location": {"lat": 53.88655929999999, "lng": 27.5140795}, "viewport": {"northeast": {"lat": 53.8880383302915, "lng": 27.5160622302915}, "southwest": {"lat": 53.88534036970851, "lng": 27.51336426970849}}}, "icon": "https://maps.gstatic.com/mapfiles/place_api/icons/v1/png_71/generic_business-71.png", "icon_background_color": "#7B9EB0", "icon_mask_base_uri": "https://maps.gstatic.com/mapfiles/place_api/icons/v2/generic_pinlet", "name": "\u0413\u0440\u0443\u0448\u0430\u045e\u043a\u0430", "photos": [{"height": 2869, "html_attributions": ["<a href=\"https://maps.google.com/maps/contrib/107659758104191198653\">Alexander Polomodov</a>"], "photo_reference": "AdDdOWrnXqxk47eUE9OBrBxI9StDrgUErOiHjuIysNzJWXWBA8D9JvcZU_vrXTzCqcG_EWz3VO9yQW24fuvjqDGcim5BaeeMDGVrUhRlY4s3zMmZbfa3wS3_sHDOW1Q5gGCfB6bEMAPd0YfOLA1tjLNQ0dWZH3vwILv8OW4pGFCVWT9i9p6K", "width": 4590}], "place_id": "ChIJt8o_ewTQ20YRY6Tonp5Xf30", "plus_code": {"compound_code": "VGP7+JJ Minsk, Belarus", "global_code": "9G59VGP7+JJ"}, "rating": 4.4, "reference": "ChIJt8o_ewTQ20YRY6Tonp5Xf30", "scope": "GOOGLE", "types": ["subway_station", "transit_station", "point_of_interest", "establishment"], "user_ratings_total": 90, "vicinity": "\u0433\u0434\u0435 \u0440\u0430\u0441\u043f\u043e\u043b\u043e\u0436\u0435\u043d\u0430 \u0443\u043b.\u0422\u0438\u043c\u0438\u0440\u044f\u0437\u0435\u0432\u0441\u043a\u0430\u044f \u0438 \u043d\u0430 \u043a\u0430\u043a\u043e\u043c \u0442\u0440\u0430\u043d\u0441\u043f\u043e\u0440\u0442\u0435 \u043c\u043e\u0436\u043d\u043e \u0434\u043e\u0435\u0445\u0430\u0442\u044c, \u0432\u0443\u043b\u0456\u0446\u0430 \u0428\u0447\u043e\u0440\u0441\u0430, \u041c\u0456\u043d\u0441\u043a"}, {"business_status": "OPERATIONAL", "geometry": {"location": {"lat": 53.8894928, "lng": 27.6147311}, "viewport": {"northeast": {"lat": 53.8907277802915, "lng": 27.6163351302915}, "southwest": {"lat": 53.8880298197085, "lng": 27.6136371697085}}}, "icon": "https://maps.gstatic.com/mapfiles/place_api/icons/v1/png_71/generic_business-71.png", "icon_background_color": "#7B9EB0", "icon_mask_base_uri": "https://maps.gstatic.com/mapfiles/place_api/icons/v2/generic_pinlet", "name": "Traktarny zavod", "photos": [{"height": 1080, "html_attributions": ["<a href=\"https://maps.google.com/maps/contrib/109505044938004985637\">\u041c\u0438\u0445\u0430\u0438\u043b \u0412\u0435\u0440\u0448\u0430\u043b\u044c</a>"], "photo_reference": "AdDdOWpmUjGDwgkHncjP32jbBtgq6om964GzFcuh4LkTtibo7VPlpsDl4qvRQfl__FqhXMWDMb6wmPxH0QRoU7eEYOTVmO0mlRFp-Q-rverp_SS3ftxDudABgUrGP5qPx2P2JsyNZoQW7As8EZjqqp2RxH35iDIz2BG9kxmWK0Z5taFE6Ksg", "width": 1657}], "place_id": "ChIJx0WR0zjO20YR62tvInw6eps", "plus_code": {"compound_code": "VJQ7+QV Minsk, Belarus", "global_code": "9G59VJQ7+QV"}, "rating": 4.3, "reference": "ChIJx0WR0zjO20YR62tvInw6eps", "scope": "GOOGLE", "types": ["subway_station", "transit_station", "point_of_interest", "establishment"], "user_ratings_total": 60, "vicinity": "Minsk"}, {"business_status": "OPERATIONAL", "geometry": {"location": {"lat": 53.90964899999999, "lng": 27.497429}, "viewport": {"northeast": {"lat": 53.91085218029151, "lng": 27.50005964999999}, "southwest": {"lat": 53.90815421970851, "lng": 27.49329705000001}}}, "icon": "https://maps.gstatic.com/mapfiles/place_api/icons/v1/png_71/generic_business-71.png", "icon_background_color": "#7B9EB0", "icon_mask_base_uri": "https://maps.gstatic.com/mapfiles/place_api/icons/v2/generic_pinlet", "name": "Pu\u0161kinskaja", "photos": [{"height": 620, "html_attributions": ["<a href=\"https://maps.google.com/maps/contrib/105787138803370507444\">Nikita Murdasov</a>"], "photo_reference": "AdDdOWpjP0MhBy9qtZVa5j-Ml0YWSUPdjohff1b_qWjq2_Jh9fwOlFEzOj-jBB3kpaoF6e-gQjOhRoE4iWbg5yyxvVtYAcbAkhxj11k0sHXgu2x5W_d0Qp2hjBOcQCfqRnJlbHK_JtoZamfaI1yT-AwNezTkSYcGoRY9J3LBhcV5vgU6mjEW", "width": 927}], "place_id": "ChIJ2SY18UXF20YRNEwSbGKjWGg", "plus_code": {"compound_code": "WF5W+VX Minsk, Belarus", "global_code": "9G59WF5W+VX"}, "rating": 4.5, "reference": "ChIJ2SY18UXF20YRNEwSbGKjWGg", "scope": "GOOGLE", "types": ["subway_station", "transit_station", "point_of_interest", "establishment"], "user_ratings_total": 126, "vicinity": "Minsk"}, {"business_status": "OPERATIONAL", "geometry": {"location": {"lat": 53.924165, "lng": 27.613338}, "viewport": {"northeast": {"lat": 53.9256192302915, "lng": 27.6152604802915}, "southwest": {"lat": 53.9229212697085, "lng": 27.6125625197085}}}, "icon": "https://maps.gstatic.com/mapfiles/place_api/icons/v1/png_71/generic_business-71.png", "icon_background_color": "#7B9EB0", "icon_mask_base_uri": "https://maps.gstatic.com/mapfiles/place_api/icons/v2/generic_pinlet", "name": "Park \u010caliuskinca\u016d", "photos": [{"height": 3000, "html_attributions": ["<a href=\"https://maps.google.com/maps/contrib/114354832208669551850\">Viktori@ smile</a>"], "photo_reference": "AdDdOWqDxxRFwabnnX4FPWPsQEUya9-szTe5N0s3k314fZilODKSZpLmVEpyPoKOcmdWmUadLe4a95Mg94mPsE6lUCN8lX1UftnUbwvmXrvXk9MB5wNZ_BckZKdo9ngsVBawsjfvvMonZmb9SsMrRLeiRMk3SuGE6lNCvppJl2l8Hcpl4DGH", "width": 4000}], "place_id": "ChIJJQIidwTP20YRxI2ywAOuHx4", "plus_code": {"compound_code": "WJF7+M8 Minsk, Belarus", "global_code": "9G59WJF7+M8"}, "rating": 4.7, "reference": "ChIJJQIidwTP20YRxI2ywAOuHx4", "scope": "GOOGLE", "types": ["subway_station", "transit_station", "point_of_interest", "establishment"], "user_ratings_total": 69, "vicinity": "praspiekt Niezalie\u017enasci, Minsk"}], "status": "OK"}