{"html_attributions": [], "next_page_token": "AdDdOWrBcI_-qVIfWAN-ubRduaPyB0QMrKXYlF172WTnVBT7kAGkQ1PDbsb6PiMbpzEW5aVXM_Wnh3H3OJlhxoMlawNxQdCiZBaQU90R8X_bBu2MwKcF6TR9MYYgoyNSPZldVDCujKQgP3RJWqY2fgJufyGHMTQFKkpUl2nfOLgedusJg79Bo0UM5OSqsfASaDTMoebqGsKu-YnsaESHT0RRR-YzSkLLYkjqhKdVTObAZKT25wtr-t_Szb0JS_hCcANiInKirixhDmR6BEH5JWUsT0f5bwHU16zRXQDm__cIKsSGQyAnb-0Ex-IHLskfetc-l-jzFPrLEePC2ZcdJJOgvpI4lnhShpzn6ObzkZ77UKrvPgy7YtimjIsx4Zoo48d5tqJt-sFhkPBlpZEh8-oQOklPrqdJQJf5pltTiuYAMxdWip8fI_pUUUK5DqVpx6UA5w", "results": [{"business_status": "OPERATIONAL", "geometry": {"location": {"lat": 53.921685, "lng": 27.59904999999999}, "viewport": {"northeast": {"lat": 53.92277148029149, "lng": 27.5997439802915}, "southwest": {"lat": 53.9200735197085, "lng": 27.59704601970849}}}, "icon": "https://maps.gstatic.com/mapfiles/place_api/icons/v1/png_71/generic_business-71.png", "icon_background_color": "#7B9EB0", "icon_mask_base_uri": "https://maps.gstatic.com/mapfiles/place_api/icons/v2/generic_pinlet", "name": "Akademija navuk", "photos": [{"height": 3456, "html_attributions": ["<a href=\"https://maps.google.com/maps/contrib/113074657166952512027\">\u041c\u0430\u043a\u0441\u0438\u043c \u0428\u0438\u0448\u043f\u043e\u0440\u043e\u043d\u043e\u043a</a>"], "photo_reference": "AdDdOWpMZlpxsCHgYs9MA4OiMyexKI0mrH7tMP9ZDuJAtybK5qa1rXhPhVX1cUnyQSqFBoOht6CozLD-f-pyNEKJYmqxRqnCI9frswAnri9oVaiUdgxIIgpkLQeZ40-dm2VmpYdKrrYfM7dPvqJ3t_Mfu6IU2vm5vd4Jr_mxmmYqq5Mb9yRy", "width": 4608}], "place_id": "ChIJrUJvZQjP20YRzF55Vi3lRA0", "plus_code": {"compound_code": "WHCX+MJ Minsk, Belarus", "global_code": "9G59WHCX+MJ"}, "rating": 4.5, "reference": "ChIJrUJvZQjP20YRzF55Vi3lRA0", "scope": "GOOGLE", "types": ["subway_station", "transit_station", "point_of_interest", "establishment"], "user_ratings_total": 108, "vicinity": "praspiekt Niezalie\u017enasci, Minsk"}, {"business_status": "OPERATIONAL", "geometry": {"location": {"lat": 53.84985500000001, "lng": 27.474805}, "viewport": {"northeast": {"lat": 53.8510472802915, "lng": 27.4758449802915}, "southwest": {"lat": 53.8483493197085, "lng": 27.4731470197085}}}, "icon": "https://maps.gstatic.com/mapfiles/place_api/icons/v1/png_71/generic_business-71.png", "icon_background_color": "#7B9EB0", "icon_mask_base_uri": "https://maps.gstatic.com/mapfiles/place_api/icons/v2/generic_pinlet", "name": "Malina\u016dka", "photos": [{"height": 3456, "html_attributions": ["<a href=\"https://maps.google.com/maps/contrib/113074657166952512027\">\u041c\u0430\u043a\u0441\u0438\u043c \u0428\u0438\u0448\u043f\u043e\u0440\u043e\u043d\u043e\u043a</a>"], "photo_reference": "AdDdOWqkwAcH_-7zfxj2ILz0V40-EWdw0r-LFqri2F4hdFgXb9Qpc3-oAd91i3C7n9oaAk5UokEGMr-yj2FLkA41qIO9GeAbBYqratTs2kgiNhAyo_gwsZOyScygl1SPJGSZgnNtRXZF40UTXp1gg12ruEZLy5EUJlK1HJ2yaWF_WGR_Wbdy", "width": 4608}], "place_id": "ChIJdTnSzIXQ20YRnDfubLatSPs", "plus_code": {"compound_code": "RFXF+WW Minsk, Belarus", "global_code": "9G59RFXF+WW"}, "rating": 4.5, "reference": "ChIJdTnSzIXQ20YRnDfubLatSPs", "scope": "GOOGLE", "types": ["subway_station", "transit_station", "point_of_interest", "establishment"], "user_ratings_total": 151, "vicinity": "Minsk"}, {"business_status": "OPERATIONAL", "geometry": {"location": {"lat": 53.864859, "lng": 27.486301}, "viewport": {"northeast": {"lat": 53.8664484802915, "lng": 27.4878229302915}, "southwest": {"lat": 53.8637505197085, "lng": 27.4851249697085}}}, "icon": "https://maps.gstatic.com/mapfiles/place_api/icons/v1/png_71/generic_business-71.png", "icon_background_color": "#7B9EB0", "icon_mask_base_uri": "https://maps.gstatic.com/mapfiles/place_api/icons/v2/generic_pinlet", "name": "\u041f\u044f\u0442\u0440\u043e\u045e\u0448\u0447\u044b\u043d\u0430", "photos": [{"height": 1840, "html_attributions": ["<a href=\"https://maps.google.com/maps/contrib/100598176989705519331\">\u0421\u0435\u0440\u0433\u0435\u0439 \u041a</a>"], "photo_reference": "AdDdOWoh6PQ0piYunVsV6-_Uo4TznAsRWsGMlNZ8C9UES3L3PTkjO9cMwr1Cn6rwfCC5rV8kzKfKib5Prdxm9s5dh3FES1iSIBSdfWkkIgvs8HRXBprWhUMtUyU88SvGBotN12eHDi_MvpZXRjjyanHWuroWsiBiEynGJg5YmORbToEcoI5U", "width": 3264}], "place_id": "ChIJwUi38XnQ20YRpv4uASupDWw", "plus_code": {"compound_code": "VF7P+WG Minsk, Belarus", "global_code": "9G59VF7P+WG"}, "rating": 4.6, "reference": "ChIJwUi38XnQ20YRpv4uASupDWw", "scope": "GOOGLE", "types": ["subway_station", "transit_station", "point_of_interest", "establishment"], "user_ratings_total": 166, "vicinity": "Praspiekt Dziar\u017eynskaha, Minsk"}, {"business_status": "OPERATIONAL", "geometry": {"location": {"lat": 53.876753, "lng": 27.496935}, "viewport": {"northeast": {"lat": 53.8782470302915, "lng": 27.4985484802915}, "southwest": {"lat": 53.8755490697085, "lng": 27.4958505197085}}}, "icon": "https://maps.gstatic.com/mapfiles/place_api/icons/v1/png_71/generic_business-71.png", "icon_background_color": "#7B9EB0", "icon_mask_base_uri": "https://maps.gstatic.com/mapfiles/place_api/icons/v2/generic_pinlet", "name": "Michalova", "photos": [{"height": 3024, "html_attributions": ["<a href=\"https://maps.google.com/maps/contrib/101462476942404507166\">Andrew Ew</a>"], "photo_reference": "AdDdOWrIPJu0l6NZK85ZKR0dUWZL_pz7aSxDsmY-Cz7aga25jSbIdCHqlgXjJlyAZFQllVQmnYLLe9Ez52zBgQCv32FKh2UyXwIkkfw3KdMaiA5Zm498JyZ0Eci_rmWRHhka3I9U41ksdVMr5T2j0QpR1s7_dIdPVfeHRe0jwgD_TXzPs1lo", "width": 4032}], "place_id": "ChIJRc9upwvQ20YRw4NuymCW_7c", "plus_code": {"compound_code": "VFGW+PQ Minsk, Belarus", "global_code": "9G59VFGW+PQ"}, "rating": 4.4, "reference": "ChIJRc9upwvQ20YRw4NuymCW_7c", "scope": "GOOGLE", "types": ["subway_station", "transit_station", "point_of_interest", "establishment"], "user_ratings_total": 76, "vicinity": "\u0443\u043b\u0438\u0446\u0430 \u0413\u0443\u0440\u0441\u043a\u043e\u0433\u043e, Minsk"}, {"business_status": "OPERATIONAL", "geometry": {"location": {"lat": 53.87710500000001, "lng": 27.549555}, "viewport": {"northeast": {"lat": 53.8785446302915, "lng": 27.5511129802915}, "southwest": {"lat": 53.8758466697085, "lng": 27.5484150197085}}}, "icon": "https://maps.gstatic.com/mapfiles/place_api/icons/v1/png_71/generic_business-71.png", "icon_background_color": "#7B9EB0", "icon_mask_base_uri": "https://maps.gstatic.com/mapfiles/place_api/icons/v2/generic_pinlet", "name": "Kava\u013askaja Slabada", "photos": [{"height": 6936, "html_attributions": ["<a href=\"https://maps.google.com/maps/contrib/104101425674290531188\">Liavontsi Ananka</a>"], "photo_reference": "AdDdOWqKDCPSG-ekER71hNVw1cwIHOm76pnpFDOyCPRLIF3g0wP-EmRdUovCpEGtyLwd6ZEsVjYoGHHBy3HgmXnZTD-qr1J3XUjezbtqQ8tm4BmPqJoO-hXBb2Z_H8Yj8yXQBks1tewlIQSpSQ6FVbI0RZYgxzF5Zuvrd0h7t7TLBV0SeCMr", "width": 9248}], "place_id": "ChIJ4-c47yXQ20YRD9YhTDroNw8", "plus_code": {"compound_code": "VGGX+RR Minsk, Belarus", "global_code": "9G59VGGX+RR"}, "rating": 4, "reference": "ChIJ4-c47yXQ20YRD9YhTDroNw8", "scope": "GOOGLE", "types": ["subway_station", "transit_station", "point_of_interest", "establishment"], "user_ratings_total": 31, "vicinity": "Belarus"}, {"business_status": "OPERATIONAL", "geometry": {"location": {"lat": 53.88655929999999, "lng": 27.5140795}, "viewport": {"northeast": {"lat": 53.8880383302915, "lng": 27.5160622302915}, "southwest": {"lat": 53.88534036970851, "lng": 27.51336426970849}}}, "icon": "https://maps.gstatic.com/mapfiles/place_api/icons/v1/png_71/generic_business-71.png", "icon_background_color": "#7B9EB0", "icon_mask_base_uri": "https://maps.gstatic.com/mapfiles/place_api/icons/v2/generic_pinlet", "name": "\u0413\u0440\u0443\u0448\u0430\u045e\u043a\u0430", "photos": [{"height": 2869, "html_attributions": ["<a href=\"https://maps.google.com/maps/contrib/107659758104191198653\">Alexander Polomodov</a>"], "photo_reference": "AdDdOWofO86YkHGUUY7Os9yfZ2OYp-GLiDSAYcTPSXrrKUr9-lbRaDzXYfjoe6pvusogwLFNqlMsNttrdjGJNtd0wm5HZY0GjESpt_2T5ZLaEVsmf5UsUZ3QVClxWsl7ja00nrSB3mRiZVHn36F4sPfi2fc88DHP_e-rjzdIxeYRArNGGVdk", "width": 4590}], "place_id": "ChIJt8o_ewTQ20YRY6Tonp5Xf30", "plus_code": {"compound_code": "VGP7+JJ Minsk, Belarus", "global_code": "9G59VGP7+JJ"}, "rating": 4.4, "reference": "ChIJt8o_ewTQ20YRY6Tonp5Xf30", "scope": "GOOGLE", "types": ["subway_station", "transit_station", "point_of_interest", "establishment"], "user_ratings_total": 90, "vicinity": "\u0433\u0434\u0435 \u0440\u0430\u0441\u043f\u043e\u043b\u043e\u0436\u0435\u043d\u0430 \u0443\u043b.\u0422\u0438\u043c\u0438\u0440\u044f\u0437\u0435\u0432\u0441\u043a\u0430\u044f \u0438 \u043d\u0430 \u043a\u0430\u043a\u043e\u043c \u0442\u0440\u0430\u043d\u0441\u043f\u043e\u0440\u0442\u0435 \u043c\u043e\u0436\u043d\u043e \u0434\u043e\u0435\u0445\u0430\u0442\u044c, \u0432\u0443\u043b\u0456\u0446\u0430 \u0428\u0447\u043e\u0440\u0441\u0430, \u041c\u0456\u043d\u0441\u043a"}, {"business_status": "OPERATIONAL", "geometry": {"location": {"lat": 53.88600799999999, "lng": 27.540818}, "viewport": {"northeast": {"lat": 53.88724089999999, "lng": 27.54256045}, "southwest": {"lat": 53.8838289, "lng": 27.53559064999999}}}, "icon": "https://maps.gstatic.com/mapfiles/place_api/icons/v1/png_71/generic_business-71.png", "icon_background_color": "#7B9EB0", "icon_mask_base_uri": "https://maps.gstatic.com/mapfiles/place_api/icons/v2/generic_pinlet", "name": "Institute of Culture", "photos": [{"height": 614, "html_attributions": ["<a href=\"https://maps.google.com/maps/contrib/105787138803370507444\">Nikita Murdasov</a>"], "photo_reference": "AdDdOWryem_OCziDzufsB45biPsu_nvgHRSvpu3in6b6mk-oxCaKYVioveARoKbiUjOjaWJQPEAjiFalTLNUHH22LtfgQZB3vYBUJMzlGUr1ENG6nIBUyisOfjtdLiqA06_qsPd0-SQU4QLYfM55DbFqyhXuDURmB9L-aUmMelqUN0kHkSoG", "width": 927}], "place_id": "ChIJYRxfGyDQ20YRCqtfk7R1nnc", "plus_code": {"compound_code": "VGPR+C8 Minsk, Belarus", "global_code": "9G59VGPR+C8"}, "rating": 4.3, "reference": "ChIJYRxfGyDQ20YRCqtfk7R1nnc", "scope": "GOOGLE", "types": ["subway_station", "transit_station", "point_of_interest", "establishment"], "user_ratings_total": 86, "vicinity": "Vulica Sura\u017eskaja, Minsk"}, {"business_status": "OPERATIONAL", "geometry": {"location": {"lat": 53.8903462, "lng": 27.5459}, "viewport": {"northeast": {"lat": 53.8911164302915, "lng": 27.5482205}, "southwest": {"lat": 53.8884184697085, "lng": 27.5451265}}}, "icon": "https://maps.gstatic.com/mapfiles/place_api/icons/v1/png_71/generic_business-71.png", "icon_background_color": "#7B9EB0", "icon_mask_base_uri": "https://maps.gstatic.com/mapfiles/place_api/icons/v2/generic_pinlet", "name": "Vakza\u013anaja", "photos": [{"height": 2976, "html_attributions": ["<a href=\"https://maps.google.com/maps/contrib/111352143313771421863\">\u041c\u0430\u043a\u0441\u0438\u043c</a>"], "photo_reference": "AdDdOWq9ue8T8LTxhqGGJZXpBB97tjBvTvOfOrXtZgdLPNX4dSGdFQhyTcdSWmUWG3k3RswKNGpR3ouMOcuGPLbT-WVClGt-STk3VJPT8W-LbvawzEXmGgi2IrYxKrQCMFFvYxaqfaZQXFNAab2i3RmaliDrGnHVMxXj5Qn42ZkGTJeswsg7", "width": 3968}], "place_id": "ChIJz-MnFN7P20YRgFLF7CAWcFY", "plus_code": {"compound_code": "VGRW+49 Minsk, Belarus", "global_code": "9G59VGRW+49"}, "rating": 4.5, "reference": "ChIJz-MnFN7P20YRgFLF7CAWcFY", "scope": "GOOGLE", "types": ["subway_station", "transit_station", "point_of_interest", "establishment"], "user_ratings_total": 21, "vicinity": "Belarus"}, {"business_status": "OPERATIONAL", "geometry": {"location": {"lat": 53.892894, "lng": 27.547886}, "viewport": {"northeast": {"lat": 53.8939019802915, "lng": 27.5497687802915}, "southwest": {"lat": 53.8912040197085, "lng": 27.5470708197085}}}, "icon": "https://maps.gstatic.com/mapfiles/place_api/icons/v1/png_71/generic_business-71.png", "icon_background_color": "#7B9EB0", "icon_mask_base_uri": "https://maps.gstatic.com/mapfiles/place_api/icons/v2/generic_pinlet", "name": "Plo\u0161\u010da Lienina", "photos": [{"height": 6379, "html_attributions": ["<a href=\"https://maps.google.com/maps/contrib/104101425674290531188\">Liavontsi Ananka</a>"], "photo_reference": "AdDdOWrur1BiMHzbEMMF3r0P9sAQ9F3ce-PUxGxLYNMXi3C6CflJPwMzJqaV0fosaW2yv4ImlzAKDxg3vNPwvxsIwr2YyLbr1GrsEAZHI3ewQvwv-GfDpthJ_iws8sLB_GFoPAQLS7wTaUiHTHBXCy1hCqw9qSj__gRdWs1cnLyc_3x9E4mf", "width": 8506}], "place_id": "ChIJqzKSk-fP20YR_9fTtPaQtuY", "plus_code": {"compound_code": "VGVX+55 Minsk, Belarus", "global_code": "9G59VGVX+55"}, "rating": 4.5, "reference": "ChIJqzKSk-fP20YR_9fTtPaQtuY", "scope": "GOOGLE", "types": ["subway_station", "transit_station", "point_of_interest", "establishment"], "user_ratings_total": 231, "vicinity": "praspiekt Niezalie\u017enasci 6, Minsk"}, {"business_status": "OPERATIONAL", "geometry": {"location": {"lat": 53.8965021, "lng": 27.53779899999999}, "viewport": {"northeast": {"lat": 53.8979045302915, "lng": 27.5387574802915}, "southwest": {"lat": 53.8952065697085, "lng": 27.53605951970849}}}, "icon": "https://maps.gstatic.com/mapfiles/place_api/icons/v1/png_71/generic_business-71.png", "icon_background_color": "#7B9EB0", "icon_mask_base_uri": "https://maps.gstatic.com/mapfiles/place_api/icons/v2/generic_pinlet", "name": "Plo\u0161\u010da Franci\u0161ka Bahu\u0161evi\u010da", "photos": [{"height": 3120, "html_attributions": ["<a href=\"https://maps.google.com/maps/contrib/104639374378819532944\">\u042e\u043b\u0438\u044f \u0410\u043d\u0434\u0440\u0435\u0435\u0432\u0430</a>"], "photo_reference": "AdDdOWpBqzDqem7d4Q8iRTQrR9PwsZtyczxj80Sbf7PiNswX_6LoIJ-DT2I-3ZALEA8cY5-9sWC8jGiDBexXRJ8T-YpDhYBvRubm5sB06d8ueXvsUOkht0OPx8k8LOWjoqG-0Q6VMhV5WCwhpBfk13y3UUbBR1f4BunKmrpk_rCN7ueBYLQM", "width": 4160}], "place_id": "ChIJlRxESuTP20YRho_Wy68KZig", "plus_code": {"compound_code": "VGWQ+J4 Minsk, Belarus", "global_code": "9G59VGWQ+J4"}, "rating": 4.1, "reference": "ChIJlRxESuTP20YRho_Wy68KZig", "scope": "GOOGLE", "types": ["subway_station", "transit_station", "point_of_interest", "establishment"], "user_ratings_total": 12, "vicinity": "Belarus"}, {"business_status": "OPERATIONAL", "geometry": {"location": {"lat": 53.8896031, "lng": 27.5854794}, "viewport": {"northeast": {"lat": 53.8922542, "lng": 27.58682955000001}, "southwest": {"lat": 53.88871939999999, "lng": 27.58399454999999}}}, "icon": "https://maps.gstatic.com/mapfiles/place_api/icons/v1/png_71/generic_business-71.png", "icon_background_color": "#7B9EB0", "icon_mask_base_uri": "https://maps.gstatic.com/mapfiles/place_api/icons/v2/generic_pinlet", "name": "Pralietarskaja", "photos": [{"height": 614, "html_attributions": ["<a href=\"https://maps.google.com/maps/contrib/105787138803370507444\">Nikita Murdasov</a>"], "photo_reference": "AdDdOWrSCcolbliP68iWOCGqMCev2KVUHOrYZegmkjZex6A2I47FypcylACAG7h7KD6lg9XD4AJtJ4OIQe6e8M34PPTN8DgqY8WFPvymwMb0ntyIzoEPAPIFUlezg1igUxCMrB6E8hDeer1B5JkNFxqL-awMcnT0HWE2v1wSckKd_EmaloYx", "width": 927}], "place_id": "ChIJ0Te50zLO20YR6NfEWBBNB9Y", "plus_code": {"compound_code": "VHQP+R5 Minsk, Belarus", "global_code": "9G59VHQP+R5"}, "rating": 4.3, "reference": "ChIJ0Te50zLO20YR6NfEWBBNB9Y", "scope": "GOOGLE", "types": ["subway_station", "transit_station", "point_of_interest", "establishment"], "user_ratings_total": 55, "vicinity": "Minsk"}, {"business_status": "OPERATIONAL", "geometry": {"location": {"lat": 53.875648, "lng": 27.62957}, "viewport": {"northeast": {"lat": 53.87846195, "lng": 27.63269295000001}, "southwest": {"lat": 53.87305855, "lng": 27.62476235}}}, "icon": "https://maps.gstatic.com/mapfiles/place_api/icons/v1/png_71/generic_business-71.png", "icon_background_color": "#7B9EB0", "icon_mask_base_uri": "https://maps.gstatic.com/mapfiles/place_api/icons/v2/generic_pinlet", "name": "Partyzanskaja", "photos": [{"height": 614, "html_attributions": ["<a href=\"https://maps.google.com/maps/contrib/105787138803370507444\">Nikita Murdasov</a>"], "photo_reference": "AdDdOWqvk-wp7QuFI8z_1rqY00mB8mqvLwxJicWjfDDUu9K2QOV-SMXhpe3EmdR3XFBzcffJRPqEz6eCoacqe2nHINQBxHmXWAAp9LxbC1r91E2LEN3B5PLuPmQH2W1m0Eb8DKTM4gLKWBNdvrGIXG7UriLxkrv27FFR6JCSgnVg8O00Z72Q", "width": 927}], "place_id": "ChIJgYC2txrO20YRI4mB4zKgcf8", "plus_code": {"compound_code": "VJGH+7R Minsk, Belarus", "global_code": "9G59VJGH+7R"}, "rating": 4.5, "reference": "ChIJgYC2txrO20YRI4mB4zKgcf8", "scope": "GOOGLE", "types": ["subway_station", "transit_station", "point_of_interest", "establishment"], "user_ratings_total": 53, "vicinity": "Minsk"}, {"business_status": "OPERATIONAL", "geometry": {"location": {"lat": 53.89381400000001, "lng": 27.571049}, "viewport": {"northeast": {"lat": 53.8951561802915, "lng": 27.5721685302915}, "southwest": {"lat": 53.8924582197085, "lng": 27.5694705697085}}}, "icon": "https://maps.gstatic.com/mapfiles/place_api/icons/v1/png_71/generic_business-71.png", "icon_background_color": "#7B9EB0", "icon_mask_base_uri": "https://maps.gstatic.com/mapfiles/place_api/icons/v2/generic_pinlet", "name": "Pier\u0161amajskaja", "photos": [{"height": 628, "html_attributions": ["<a href=\"https://maps.google.com/maps/contrib/105787138803370507444\">Nikita Murdasov</a>"], "photo_reference": "AdDdOWq9TsJ8X_UC0Oh9jV59HQAJLEe3JH5fXKbXiQskTF2-CtGemMbiMSB5DDJY8fIufnBh7pn-wtqj_6YkDXWKF8T5ap67d58P-58YUAlBDsY9zaHBz_nYuey4e5f7mni1gL_ZSmTsyGKhySwTifwFMRv3c320lbjjJJqGzz6J0F-5ugfy", "width": 950}], "place_id": "ChIJb5Tcgs_P20YRGSn9Wlh5C2c", "plus_code": {"compound_code": "VHVC+GC Minsk, Belarus", "global_code": "9G59VHVC+GC"}, "rating": 4.4, "reference": "ChIJb5Tcgs_P20YRGSn9Wlh5C2c", "scope": "GOOGLE", "types": ["subway_station", "transit_station", "point_of_interest", "establishment"], "user_ratings_total": 75, "vicinity": "Minsk"}, {"business_status": "OPERATIONAL", "geometry": {"location": {"lat": 53.906292, "lng": 27.453945}, "viewport": {"northeast": {"lat": 53.90770648029149, "lng": 27.4552608302915}, "southwest": {"lat": 53.9050085197085, "lng": 27.4525628697085}}}, "icon": "https://maps.gstatic.com/mapfiles/place_api/icons/v1/png_71/generic_business-71.png", "icon_background_color": "#7B9EB0", "icon_mask_base_uri": "https://maps.gstatic.com/mapfiles/place_api/icons/v2/generic_pinlet", "name": "Kunca\u016d\u0161\u010dyna", "photos": [{"height": 3456, "html_attributions": ["<a href=\"https://maps.google.com/maps/contrib/107659758104191198653\">Alexander Polomodov</a>"], "photo_reference": "AdDdOWo4T-pvAQsyLff4tiXDxa1ig6iGNpmgKMtThnOEwzrL0PV4lpwHEtsptoH4xnXgjkmklSabwh1Cdy2CHf7WN7iqf0z9X9lYlWG-dym9GvaZyrSgLlwS--0V7NWmeu5BZaom5Nshc0F6aCVbJ0H4q4zrg3xcy5VvONLlVTqQxIKB2HKs", "width": 4608}], "place_id": "ChIJQRz1JtPa20YRTrAjxcsRXJk", "plus_code": {"compound_code": "WF43+GH Minsk, Belarus", "global_code": "9G59WF43+GH"}, "rating": 4.3, "reference": "ChIJQRz1JtPa20YRTrAjxcsRXJk", "scope": "GOOGLE", "types": ["subway_station", "transit_station", "point_of_interest", "establishment"], "user_ratings_total": 69, "vicinity": "vulica Prytyckaha, Minsk"}, {"business_status": "OPERATIONAL", "geometry": {"location": {"lat": 53.86888800000001, "lng": 27.649227}, "viewport": {"northeast": {"lat": 53.8700104802915, "lng": 27.6509467302915}, "southwest": {"lat": 53.86731251970851, "lng": 27.6482487697085}}}, "icon": "https://maps.gstatic.com/mapfiles/place_api/icons/v1/png_71/generic_business-71.png", "icon_background_color": "#7B9EB0", "icon_mask_base_uri": "https://maps.gstatic.com/mapfiles/place_api/icons/v2/generic_pinlet", "name": "A\u016dtazavodskaja", "photos": [{"height": 606, "html_attributions": ["<a href=\"https://maps.google.com/maps/contrib/105787138803370507444\">Nikita Murdasov</a>"], "photo_reference": "AdDdOWpO3gJMSsrAt42JriU7NbWusM5fxcHFHFbEvn_R45XJv8p528rj-5WWjppznPlKKXUsgBP9mZNbqQwyh86mxdrOOoEBZgxtMEBtVu5ww-_CrbmXlgN1gdcKsuu9Fn1iBMir85Z5iJylBqaZpfw3mEOvXBesnp-cTi_xFO5f97aDJVOu", "width": 927}], "place_id": "ChIJyZDkA_3N20YR9zyk1D7jEis", "plus_code": {"compound_code": "VJ9X+HM Minsk, Belarus", "global_code": "9G59VJ9X+HM"}, "rating": 4.6, "reference": "ChIJyZDkA_3N20YR9zyk1D7jEis", "scope": "GOOGLE", "types": ["subway_station", "transit_station", "point_of_interest", "establishment"], "user_ratings_total": 21, "vicinity": "Belarus"}, {"business_status": "OPERATIONAL", "geometry": {"location": {"lat": 53.906873, "lng": 27.437634}, "viewport": {"northeast": {"lat": 53.9082920302915, "lng": 27.44175194999999}, "southwest": {"lat": 53.9055940697085, "lng": 27.43265255000001}}}, "icon": "https://maps.gstatic.com/mapfiles/place_api/icons/v1/png_71/generic_business-71.png", "icon_background_color": "#7B9EB0", "icon_mask_base_uri": "https://maps.gstatic.com/mapfiles/place_api/icons/v2/generic_pinlet", "name": "Kamiennaja Horka", "photos": [{"height": 547, "html_attributions": ["<a href=\"https://maps.google.com/maps/contrib/105787138803370507444\">Nikita Murdasov</a>"], "photo_reference": "AdDdOWqKuAiojl4Mybd_ij8eLzcuiBf2kFhEdLYKgoLt_Q-hPA0cGB7BUPYVegjHavmsn0rWfZrd7I-QXEZLubMz6WxFpIqM7OEhsurZfGoVkMCIFeW-v5C4H7ficLmOFTvltUqPghayd7bM09KCp5zIVixgQBXrFU-uLvWWCnquru0366WQ", "width": 820}], "place_id": "ChIJGQnpIirb20YRiFxPwj98oTQ", "plus_code": {"compound_code": "WC4Q+P3 Minsk, Belarus", "global_code": "9G59WC4Q+P3"}, "rating": 4.4, "reference": "ChIJGQnpIirb20YRiFxPwj98oTQ", "scope": "GOOGLE", "types": ["subway_station", "transit_station", "point_of_interest", "establishment"], "user_ratings_total": 189, "vicinity": "vulica Prytyckaha, Minsk"}, {"business_status": "OPERATIONAL", "geometry": {"location": {"lat": 53.9085393, "lng": 27.480908}, "viewport": {"northeast": {"lat": 53.90985313029149, "lng": 27.4821105802915}, "southwest": {"lat": 53.9071551697085, "lng": 27.4794126197085}}}, "icon": "https://maps.gstatic.com/mapfiles/place_api/icons/v1/png_71/generic_business-71.png", "icon_background_color": "#7B9EB0", "icon_mask_base_uri": "https://maps.gstatic.com/mapfiles/place_api/icons/v2/generic_pinlet", "name": "Sparty\u016dnaja", "photos": [{"height": 2448, "html_attributions": ["<a href=\"https://maps.google.com/maps/contrib/104035404819719278247\">ted ted</a>"], "photo_reference": "AdDdOWqw-9SqUemduFslV3Q5htAS6TBkXcz6hVac2ww_rp9CGmDv3qF6uUarCmKTDWcBK5b88NGHkVKjHgBaF48BXKKtq1Mg5yEw13OjxQY0NSKZ4AgLzy0u5z2Ie45qtM_eHLEi-7aGfW799vpgcpVnQUuRfHRB5J68mVZSQOnd_ShIy6iW", "width": 3264}], "place_id": "ChIJlQ0JcDbF20YRMSibJQEWb20", "plus_code": {"compound_code": "WF5J+C9 Minsk, Belarus", "global_code": "9G59WF5J+C9"}, "rating": 4.4, "reference": "ChIJlQ0JcDbF20YRMSibJQEWb20", "scope": "GOOGLE", "types": ["subway_station", "transit_station", "point_of_interest", "establishment"], "user_ratings_total": 86, "vicinity": "vulica Prytyckaha, Minsk"}, {"business_status": "OPERATIONAL", "geometry": {"location": {"lat": 53.90426009999999, "lng": 27.539911}, "viewport": {"northeast": {"lat": 53.9058744302915, "lng": 27.5414910802915}, "southwest": {"lat": 53.90317646970851, "lng": 27.5387931197085}}}, "icon": "https://maps.gstatic.com/mapfiles/place_api/icons/v1/png_71/generic_business-71.png", "icon_background_color": "#7B9EB0", "icon_mask_base_uri": "https://maps.gstatic.com/mapfiles/place_api/icons/v2/generic_pinlet", "name": "Jubiliejnaja plo\u0161\u010da", "photos": [{"height": 667, "html_attributions": ["<a href=\"https://maps.google.com/maps/contrib/105787138803370507444\">Nikita Murdasov</a>"], "photo_reference": "AdDdOWrhJxN4QZKBabducT70k7eREbxZLDACBx8qKAs3NG7DyxjImyitHr-yRz-qRpp3YgzKIctkEzKNfpSxudxN3EBP0gkgqSNTHnLGHv1VCtQC1JHjuO72rti3EppE1_JaLB2ssLqJjGfS2xGTzyAmcB7mpEU9F3ZBs0Tb9JWcyqkZZbEg", "width": 1000}], "place_id": "ChIJ7767Ae7P20YRFRzg1Mk0dc4", "plus_code": {"compound_code": "WG3Q+PX Minsk, Belarus", "global_code": "9G59WG3Q+PX"}, "rating": 4.4, "reference": "ChIJ7767Ae7P20YRFRzg1Mk0dc4", "scope": "GOOGLE", "types": ["subway_station", "transit_station", "point_of_interest", "establishment"], "user_ratings_total": 16, "vicinity": "Belarus"}, {"business_status": "OPERATIONAL", "geometry": {"location": {"lat": 53.906799, "lng": 27.522678}, "viewport": {"northeast": {"lat": 53.9079829302915, "lng": 27.5235178802915}, "southwest": {"lat": 53.9052849697085, "lng": 27.5208199197085}}}, "icon": "https://maps.gstatic.com/mapfiles/place_api/icons/v1/png_71/generic_business-71.png", "icon_background_color": "#7B9EB0", "icon_mask_base_uri": "https://maps.gstatic.com/mapfiles/place_api/icons/v2/generic_pinlet", "name": "Maladzio\u017enaja", "photos": [{"height": 796, "html_attributions": ["<a href=\"https://maps.google.com/maps/contrib/105787138803370507444\">Nikita Murdasov</a>"], "photo_reference": "AdDdOWpjVsz8Pg01yVaq0xEdf3r8cZ1RojRp8CKVnkG-CzX4yJmuExjlauZR5flYap6aIZVm8K99eABfe_AZ6GyxrAlOTkcGRcA99QBv7YfJ9MujmZz71Sft0gzfoXlnh7aoLJluRUuA_YT-UuOB2ZKMjgHL-zT5UKasNB_LhxKSXrE89zUt", "width": 1202}], "place_id": "ChIJPYXpKfbP20YRjEwxeGKKAVk", "plus_code": {"compound_code": "WG4F+P3 Minsk, Belarus", "global_code": "9G59WG4F+P3"}, "rating": 4.4, "reference": "ChIJPYXpKfbP20YRjEwxeGKKAVk", "scope": "GOOGLE", "types": ["subway_station", "transit_station", "point_of_interest", "establishment"], "user_ratings_total": 45, "vicinity": "Pier\u0161y Zaharadny zavulak, Minsk"}, {"business_status": "OPERATIONAL", "geometry": {"location": {"lat": 53.90964899999999, "lng": 27.497429}, "viewport": {"northeast": {"lat": 53.91085218029151, "lng": 27.50005964999999}, "southwest": {"lat": 53.90815421970851, "lng": 27.49329705000001}}}, "icon": "https://maps.gstatic.com/mapfiles/place_api/icons/v1/png_71/generic_business-71.png", "icon_background_color": "#7B9EB0", "icon_mask_base_uri": "https://maps.gstatic.com/mapfiles/place_api/icons/v2/generic_pinlet", "name": "Pu\u0161kinskaja", "photos": [{"height": 620, "html_attributions": ["<a href=\"https://maps.google.com/maps/contrib/105787138803370507444\">Nikita Murdasov</a>"], "photo_reference": "AdDdOWqQ9EmvHaByngcELZ5g1yCqIJcUhnt_LKvrC6Mqu2erUVZTl6DEmbLmekxcThnDYeHNOcwPq_Hfa4WdzXGXQ57fYdrCKYGdETXQZQGt1ykJsHHpMfgr202TOgWe1NNk4rC5SeqMuryCZkLrZRpW5og0ttu2LfcBMUMTh0UyT-a7msZN", "width": 927}], "place_id": "ChIJ2SY18UXF20YRNEwSbGKjWGg", "plus_code": {"compound_code": "WF5W+VX Minsk, Belarus", "global_code": "9G59WF5W+VX"}, "rating": 4.5, "reference": "ChIJ2SY18UXF20YRNEwSbGKjWGg", "scope": "GOOGLE", "types": ["subway_station", "transit_station", "point_of_interest", "establishment"], "user_ratings_total": 126, "vicinity": "Minsk"}], "status": "OK"}