{"html_attributions": [], "next_page_token": "AdDdOWpuFjzQ1k-NJQCAKXVG3GHlh_bOfTsbPC5nFY4MuoXYFmL6KvefCSk1HjVDXihrWlzqDrR9s-k6rjIwSa013uUHCBdzQwDkEt76A__gct2rRNw6MpEgo1zeKbdmFTA5pX6GcV74IQ9rz3aEDp-XGCCvWjYts3N7Hj_AFSKQHKZvvGBOH6GdF-BjTCY7YJXun5MdwKyMvdYMhUa3h22pnCX3mqEzqOMlAkAvx9jzRKz_C2TF-5tDKv-LvcFkH5xtrz1an7UHTCpZewRjJRs5eDfzEF2X-wBcs4x-jlOOlYXndnE3LyC0o1qSpTdklVXKxtoXz4-OoX5DndbZ4hMxYcfVT8GQEr8lKioE-g9oVEXdNtMQay8rUmqMRUS0W5_CckkDpQyzook-I1vg_xDGoKAsthTlolPj0kdsxrlcmfNd149vw7U6xkAOsRxrW_cgcg", "results": [{"business_status": "OPERATIONAL", "geometry": {"location": {"lat": 53.921685, "lng": 27.59904999999999}, "viewport": {"northeast": {"lat": 53.92277148029149, "lng": 27.5997439802915}, "southwest": {"lat": 53.9200735197085, "lng": 27.59704601970849}}}, "icon": "https://maps.gstatic.com/mapfiles/place_api/icons/v1/png_71/generic_business-71.png", "icon_background_color": "#7B9EB0", "icon_mask_base_uri": "https://maps.gstatic.com/mapfiles/place_api/icons/v2/generic_pinlet", "name": "Akademija navuk", "photos": [{"height": 3456, "html_attributions": ["<a href=\"https://maps.google.com/maps/contrib/113074657166952512027\">\u041c\u0430\u043a\u0441\u0438\u043c \u0428\u0438\u0448\u043f\u043e\u0440\u043e\u043d\u043e\u043a</a>"], "photo_reference": "AdDdOWqDlKLt5SHUS3S9Sek7F-YMiTISw4tUrxDk8NwXTPMBGK_d6fig5gdxHsa99CPBKvcK7GsKwfNfCQuQ1t6QXRc_sBy47eX7On-HBZHcuG8rQSsp7YyiddWHJ4FgaZrFnvAtOtmOtLysooY2hCioNpvejtHgATsV2hrK67v7XPXCCaes", "width": 4608}], "place_id": "ChIJrUJvZQjP20YRzF55Vi3lRA0", "plus_code": {"compound_code": "WHCX+MJ Minsk, Belarus", "global_code": "9G59WHCX+MJ"}, "rating": 4.5, "reference": "ChIJrUJvZQjP20YRzF55Vi3lRA0", "scope": "GOOGLE", "types": ["subway_station", "transit_station", "point_of_interest", "establishment"], "user_ratings_total": 108, "vicinity": "praspiekt Niezalie\u017enasci, Minsk"}, {"business_status": "OPERATIONAL", "geometry": {"location": {"lat": 53.94539899999999, "lng": 27.68790499999999}, "viewport": {"northeast": {"lat": 53.94695939999998, "lng": 27.69113535000002}, "southwest": {"lat": 53.9438494, "lng": 27.68507914999999}}}, "icon": "https://maps.gstatic.com/mapfiles/place_api/icons/v1/png_71/generic_business-71.png", "icon_background_color": "#7B9EB0", "icon_mask_base_uri": "https://maps.gstatic.com/mapfiles/place_api/icons/v2/generic_pinlet", "name": "Uru\u010d\u010da", "photos": [{"height": 3120, "html_attributions": ["<a href=\"https://maps.google.com/maps/contrib/115476190685529342707\">Zhanna Charniak</a>"], "photo_reference": "AdDdOWoChUU_GT17Zy9Dm8x6VGJgXHM1wRDhdsvC3N6UeiAyj5vOIfaLFvrp-Xk3rJVkA8Uwwr1gAEGJmLs0qdc4vtoB6ALWPRePLqY7mHWgSYoil9kTEuK0AraIIIEr0s6ruutSdFURmdbrvxTxe55q7JJN6dDoSLKVgzOSo5OY2jDXa4gz", "width": 4160}], "place_id": "ChIJI20WoErJ20YRYhq4PHBa4jc", "plus_code": {"compound_code": "WMWQ+55 Minsk, Belarus", "global_code": "9G59WMWQ+55"}, "rating": 4.5, "reference": "ChIJI20WoErJ20YRYhq4PHBa4jc", "scope": "GOOGLE", "types": ["subway_station", "transit_station", "point_of_interest", "establishment"], "user_ratings_total": 93, "vicinity": "Uru\u010d\u010da, Minsk"}, {"business_status": "OPERATIONAL", "geometry": {"location": {"lat": 53.938968, "lng": 27.667316}, "viewport": {"northeast": {"lat": 53.94005148029151, "lng": 27.6681692802915}, "southwest": {"lat": 53.93735351970851, "lng": 27.6654713197085}}}, "icon": "https://maps.gstatic.com/mapfiles/place_api/icons/v1/png_71/generic_business-71.png", "icon_background_color": "#7B9EB0", "icon_mask_base_uri": "https://maps.gstatic.com/mapfiles/place_api/icons/v2/generic_pinlet", "name": "Barysa\u016dski trakt", "photos": [{"height": 3391, "html_attributions": ["<a href=\"https://maps.google.com/maps/contrib/107659758104191198653\">Alexander Polomodov</a>"], "photo_reference": "AdDdOWqHg_Fo2pD4H9wqfdM4zmlSDaIllJPwbGOIb3zBHSEolIgw68wkAISQUhIXTAEvneBqaXrB5nng6phcYn0R08hT545sHURkuT_mrufI4qGwCuITb4ladkgC8PzF_4dL17Y5TTAC29Dtc63lhw-jR6mbUP9I2rL7Trnr9srIY1oyXgDk", "width": 4521}], "place_id": "ChIJiZzdZc_O20YR2mMvWWLTw1c", "plus_code": {"compound_code": "WMQ8+HW Minsk, Belarus", "global_code": "9G59WMQ8+HW"}, "rating": 4.7, "reference": "ChIJiZzdZc_O20YR2mMvWWLTw1c", "scope": "GOOGLE", "types": ["subway_station", "transit_station", "point_of_interest", "establishment"], "user_ratings_total": 42, "vicinity": "praspiekt Niezalie\u017enasci, Minsk"}, {"business_status": "OPERATIONAL", "geometry": {"location": {"lat": 53.93448499999999, "lng": 27.651321}, "viewport": {"northeast": {"lat": 53.93605083029149, "lng": 27.6530578802915}, "southwest": {"lat": 53.93335286970849, "lng": 27.6503599197085}}}, "icon": "https://maps.gstatic.com/mapfiles/place_api/icons/v1/png_71/generic_business-71.png", "icon_background_color": "#7B9EB0", "icon_mask_base_uri": "https://maps.gstatic.com/mapfiles/place_api/icons/v2/generic_pinlet", "name": "Uschod", "photos": [{"height": 614, "html_attributions": ["<a href=\"https://maps.google.com/maps/contrib/105787138803370507444\">Nikita Murdasov</a>"], "photo_reference": "AdDdOWrAi2UsvbIwVShhaw3nstVq0R_PO-28aDfyljooDfsuUwHEaohiCJ8ItNWP2UBdK8QrLLiVPVxzHkg5Nx3alowUi52Us7a_v9VRUOdTUXwCfHMACIifgmDl2lwHyrHflLGRDtwPMXvp1MveLO75rsxX7Bc6PxksUPuNP3vPDUWHdi-t", "width": 927}], "place_id": "ChIJcZpAktzO20YRzUwkOLo_bNU", "plus_code": {"compound_code": "WMM2+QG Minsk, Belarus", "global_code": "9G59WMM2+QG"}, "rating": 4.5, "reference": "ChIJcZpAktzO20YRzUwkOLo_bNU", "scope": "GOOGLE", "types": ["subway_station", "transit_station", "point_of_interest", "establishment"], "user_ratings_total": 176, "vicinity": "praspiekt Niezalie\u017enasci, Minsk"}, {"business_status": "OPERATIONAL", "geometry": {"location": {"lat": 53.92794, "lng": 27.627688}, "viewport": {"northeast": {"lat": 53.9290979802915, "lng": 27.6285820802915}, "southwest": {"lat": 53.9264000197085, "lng": 27.6258841197085}}}, "icon": "https://maps.gstatic.com/mapfiles/place_api/icons/v1/png_71/generic_business-71.png", "icon_background_color": "#7B9EB0", "icon_mask_base_uri": "https://maps.gstatic.com/mapfiles/place_api/icons/v2/generic_pinlet", "name": "Masko\u016dskaja", "photos": [{"height": 614, "html_attributions": ["<a href=\"https://maps.google.com/maps/contrib/105787138803370507444\">Nikita Murdasov</a>"], "photo_reference": "AdDdOWq50byuf-aX1LR6dL3CaWpKth12PgB3b1PqBvsRFBtMI1p5K-W-4Pm8cVqINOe5vZG7MBSdccxwgAHI1juZ_7Y6n4kN6ft-O80uwZ42DR_F102fMpsZdIDUm5vgZZwjkeo8_EtU9-BsjDsbV3IIeki0ZfBxJO7QGIRK1wDVPTEICrgX", "width": 927}], "place_id": "ChIJDZAJdOLO20YRWSKeZykodgE", "plus_code": {"compound_code": "WJHH+53 Minsk, Belarus", "global_code": "9G59WJHH+53"}, "rating": 4.5, "reference": "ChIJDZAJdOLO20YRWSKeZykodgE", "scope": "GOOGLE", "types": ["subway_station", "transit_station", "point_of_interest", "establishment"], "user_ratings_total": 55, "vicinity": "praspiekt Niezalie\u017enasci, Minsk"}, {"business_status": "OPERATIONAL", "geometry": {"location": {"lat": 53.924165, "lng": 27.613338}, "viewport": {"northeast": {"lat": 53.9256192302915, "lng": 27.6152604802915}, "southwest": {"lat": 53.9229212697085, "lng": 27.6125625197085}}}, "icon": "https://maps.gstatic.com/mapfiles/place_api/icons/v1/png_71/generic_business-71.png", "icon_background_color": "#7B9EB0", "icon_mask_base_uri": "https://maps.gstatic.com/mapfiles/place_api/icons/v2/generic_pinlet", "name": "Park \u010caliuskinca\u016d", "photos": [{"height": 3000, "html_attributions": ["<a href=\"https://maps.google.com/maps/contrib/114354832208669551850\">Viktori@ smile</a>"], "photo_reference": "AdDdOWqS29iADSQcCuC6JlR0yK0c1VQETUwvY_vT6tpqfH57ZobPHhEHKXp5XExh2R6lO-BhIe3XeNxSsbFIm4DgzaZqZGmtAjyhP5edxa10R-Ioy6watFowbr_Gb3bQ4YrKNw-g1Vo7TIrp_6XWTlTsZNwdG82FhoLxl3zfUxT7Z3TjEQzi", "width": 4000}], "place_id": "ChIJJQIidwTP20YRxI2ywAOuHx4", "plus_code": {"compound_code": "WJF7+M8 Minsk, Belarus", "global_code": "9G59WJF7+M8"}, "rating": 4.7, "reference": "ChIJJQIidwTP20YRxI2ywAOuHx4", "scope": "GOOGLE", "types": ["subway_station", "transit_station", "point_of_interest", "establishment"], "user_ratings_total": 69, "vicinity": "praspiekt Niezalie\u017enasci, Minsk"}, {"business_status": "OPERATIONAL", "geometry": {"location": {"lat": 53.915947, "lng": 27.584242}, "viewport": {"northeast": {"lat": 53.91731049999999, "lng": 27.5874513}, "southwest": {"lat": 53.91457729999999, "lng": 27.5802245}}}, "icon": "https://maps.gstatic.com/mapfiles/place_api/icons/v1/png_71/generic_business-71.png", "icon_background_color": "#7B9EB0", "icon_mask_base_uri": "https://maps.gstatic.com/mapfiles/place_api/icons/v2/generic_pinlet", "name": "Plo\u0161\u010da Jakuba Kolasa", "photos": [{"height": 3000, "html_attributions": ["<a href=\"https://maps.google.com/maps/contrib/116433741259729707234\">\u0418\u043d\u0435\u0441\u0441\u0430 \u0411\u044b\u0441\u0442\u0440\u043e\u0432\u0430</a>"], "photo_reference": "AdDdOWrn82Fidh7QGD0qNL-QTcxajk2Gl9ACZaWrj6Lcf-85IfoztKMviy8WXVdwNIPG3kKv7WMX-4U8VW3IHtOzhVdJFxuQwzUynaaC-WwILfuQlZtJ2vlNbge8k38_dBkORmwa-BtDY-rMi98DPUT_8C-Dz_ht10ojcrD5DM5TUG6gM50x", "width": 3000}], "place_id": "ChIJaTZ2i6PP20YRuL87-2ak2UQ", "plus_code": {"compound_code": "WH8M+9M Minsk, Belarus", "global_code": "9G59WH8M+9M"}, "rating": 4.4, "reference": "ChIJaTZ2i6PP20YRuL87-2ak2UQ", "scope": "GOOGLE", "types": ["subway_station", "transit_station", "point_of_interest", "establishment"], "user_ratings_total": 150, "vicinity": "vulica Jakuba Kolasa, Minsk"}, {"business_status": "OPERATIONAL", "geometry": {"location": {"lat": 53.90954699999999, "lng": 27.576316}, "viewport": {"northeast": {"lat": 53.91028079999999, "lng": 27.57728615}, "southwest": {"lat": 53.90734560000001, "lng": 27.57340554999999}}}, "icon": "https://maps.gstatic.com/mapfiles/place_api/icons/v1/png_71/generic_business-71.png", "icon_background_color": "#7B9EB0", "icon_mask_base_uri": "https://maps.gstatic.com/mapfiles/place_api/icons/v2/generic_pinlet", "name": "Victory Square", "photos": [{"height": 5961, "html_attributions": ["<a href=\"https://maps.google.com/maps/contrib/104101425674290531188\">Liavontsi Ananka</a>"], "photo_reference": "AdDdOWrILprf29axujGKqJW2CpTHWiwama1XPfJTzETLUWRr3TvU8DmEadFS7kQzeLHbF8njB3niPmeXLAT3K5K8FJIYvUPgjJDyRG5aRbDG6x0a2L4rgnPwR3_fuPcJ8fWFa5gKIya_0MWE_o1jtx8yaHOKsvQ0Eta669ELYmudWfjyccS8", "width": 7948}], "place_id": "ChIJkWga-rvP20YRfmK6BaPfSzE", "plus_code": {"compound_code": "WH5G+RG Minsk, Belarus", "global_code": "9G59WH5G+RG"}, "rating": 4.6, "reference": "ChIJkWga-rvP20YRfmK6BaPfSzE", "scope": "GOOGLE", "types": ["subway_station", "transit_station", "point_of_interest", "establishment"], "user_ratings_total": 198, "vicinity": "praspiekt Niezalie\u017enasci, Minsk"}, {"business_status": "OPERATIONAL", "geometry": {"location": {"lat": 53.8894928, "lng": 27.6147311}, "viewport": {"northeast": {"lat": 53.8907277802915, "lng": 27.6163351302915}, "southwest": {"lat": 53.8880298197085, "lng": 27.6136371697085}}}, "icon": "https://maps.gstatic.com/mapfiles/place_api/icons/v1/png_71/generic_business-71.png", "icon_background_color": "#7B9EB0", "icon_mask_base_uri": "https://maps.gstatic.com/mapfiles/place_api/icons/v2/generic_pinlet", "name": "Traktarny zavod", "photos": [{"height": 1080, "html_attributions": ["<a href=\"https://maps.google.com/maps/contrib/109505044938004985637\">\u041c\u0438\u0445\u0430\u0438\u043b \u0412\u0435\u0440\u0448\u0430\u043b\u044c</a>"], "photo_reference": "AdDdOWpgALoVENYLYfyvjovmpQuxUvOawEJw5jEzMEujtuRrRX1Oi753lW8-m89X043KPswu2HgTZk_fFAfOXsDn-ZXX5aqQ-5zKUTGkzSllIZgXl-vTNXn_BY_QodKCqKof3n62Nmnq9uYlP8ZHhSyp7MQ_bt7Iwpc4LbZE2CSNB0-LZ30-", "width": 1657}], "place_id": "ChIJx0WR0zjO20YR62tvInw6eps", "plus_code": {"compound_code": "VJQ7+QV Minsk, Belarus", "global_code": "9G59VJQ7+QV"}, "rating": 4.3, "reference": "ChIJx0WR0zjO20YR62tvInw6eps", "scope": "GOOGLE", "types": ["subway_station", "transit_station", "point_of_interest", "establishment"], "user_ratings_total": 60, "vicinity": "Minsk"}, {"business_status": "OPERATIONAL", "geometry": {"location": {"lat": 53.905959, "lng": 27.554065}, "viewport": {"northeast": {"lat": 53.9070026802915, "lng": 27.5551299802915}, "southwest": {"lat": 53.9043047197085, "lng": 27.5524320197085}}}, "icon": "https://maps.gstatic.com/mapfiles/place_api/icons/v1/png_71/generic_business-71.png", "icon_background_color": "#7B9EB0", "icon_mask_base_uri": "https://maps.gstatic.com/mapfiles/place_api/icons/v2/generic_pinlet", "name": "Niamiha", "photos": [{"height": 1124, "html_attributions": ["<a href=\"https://maps.google.com/maps/contrib/110630681299150126577\">Daumantas Kviklys</a>"], "photo_reference": "AdDdOWofPbuNY4eZNLFY9t3w6GvBPEnDK435MCXHUn0vbmZ3BQx50b0B1nV_IcWDa4ojLbygAW1JLFfRypQUCG5z1xvNbPsqYBhyShIim5mp-mJMvHu-KqHaVfjX6ybBJFF2HsvmB8726lG8Qp4LiqPk37uqrV8tY9zAcuCVs7DhOVuDP_Tl", "width": 2000}], "place_id": "ChIJjUQ0R-vP20YR34v7zgTVplU", "plus_code": {"compound_code": "WH43+9J Minsk, Belarus", "global_code": "9G59WH43+9J"}, "rating": 4.7, "reference": "ChIJjUQ0R-vP20YR34v7zgTVplU", "scope": "GOOGLE", "types": ["subway_station", "transit_station", "point_of_interest", "establishment"], "user_ratings_total": 298, "vicinity": "Minsk"}, {"business_status": "OPERATIONAL", "geometry": {"location": {"lat": 53.902128, "lng": 27.562308}, "viewport": {"northeast": {"lat": 53.9034207802915, "lng": 27.56472205}, "southwest": {"lat": 53.9007228197085, "lng": 27.55961265}}}, "icon": "https://maps.gstatic.com/mapfiles/place_api/icons/v1/png_71/generic_business-71.png", "icon_background_color": "#7B9EB0", "icon_mask_base_uri": "https://maps.gstatic.com/mapfiles/place_api/icons/v2/generic_pinlet", "name": "Kastry\u010dnickaja", "photos": [{"height": 1800, "html_attributions": ["<a href=\"https://maps.google.com/maps/contrib/105347665285354978466\">M</a>"], "photo_reference": "AdDdOWp4cm0S_KLKpcFBfme_QayfWcocZtrOqKluHPCCiCB_LliBnOjwx9eqXFB7f3EI1nHGKiRBvtSPa0eoyW7J_iUDrqGHIXpvi46cpxiPteDaO9Bi3sotAqxByl3ywv3VdAs6eZhjem3MV-qhYM17RGNf9AZY-YYys6q9RkDME2yzbqKA", "width": 3175}], "place_id": "ChIJxW1DU8DP20YR-8sRbC8VHAE", "plus_code": {"compound_code": "WH26+VW Minsk, Belarus", "global_code": "9G59WH26+VW"}, "rating": 4.4, "reference": "ChIJxW1DU8DP20YR-8sRbC8VHAE", "scope": "GOOGLE", "types": ["subway_station", "transit_station", "point_of_interest", "establishment"], "user_ratings_total": 151, "vicinity": "praspekt Niezalie\u017enasci, Minsk"}, {"business_status": "OPERATIONAL", "geometry": {"location": {"lat": 53.900968, "lng": 27.562077}, "viewport": {"northeast": {"lat": 53.9021508802915, "lng": 27.56361635}, "southwest": {"lat": 53.8994529197085, "lng": 27.55745895}}}, "icon": "https://maps.gstatic.com/mapfiles/place_api/icons/v1/png_71/generic_business-71.png", "icon_background_color": "#7B9EB0", "icon_mask_base_uri": "https://maps.gstatic.com/mapfiles/place_api/icons/v2/generic_pinlet", "name": "Kupalovskaya", "photos": [{"height": 614, "html_attributions": ["<a href=\"https://maps.google.com/maps/contrib/105787138803370507444\">Nikita Murdasov</a>"], "photo_reference": "AdDdOWrqyJ7_RyKL_pib2jS7kKZCNYlDzj_2O3YHJmRKtbEnse2p8orJa5GTlbHpg11K_UH4XPywX0ge8JYo06iEMI6M2OMII6ApxMEkYCDD2hTBBgHr4_0US7_NieLIDv_Oq03ew0xNGDsyubB8q8T3H3U4m-ulp_EY1pxDqcUXLo173STm", "width": 927}], "place_id": "ChIJE61HCsHP20YRKaJAS0G66Eo", "plus_code": {"compound_code": "WH26+9R Minsk, Belarus", "global_code": "9G59WH26+9R"}, "rating": 4.4, "reference": "ChIJE61HCsHP20YRKaJAS0G66Eo", "scope": "GOOGLE", "types": ["subway_station", "transit_station", "point_of_interest", "establishment"], "user_ratings_total": 97, "vicinity": "vulica Enhie\u013asa, Minsk"}, {"business_status": "OPERATIONAL", "geometry": {"location": {"lat": 53.8896031, "lng": 27.5854794}, "viewport": {"northeast": {"lat": 53.8922542, "lng": 27.58682955000001}, "southwest": {"lat": 53.88871939999999, "lng": 27.58399454999999}}}, "icon": "https://maps.gstatic.com/mapfiles/place_api/icons/v1/png_71/generic_business-71.png", "icon_background_color": "#7B9EB0", "icon_mask_base_uri": "https://maps.gstatic.com/mapfiles/place_api/icons/v2/generic_pinlet", "name": "Pralietarskaja", "photos": [{"height": 614, "html_attributions": ["<a href=\"https://maps.google.com/maps/contrib/105787138803370507444\">Nikita Murdasov</a>"], "photo_reference": "AdDdOWoHqSvsBE22lePWZcPohRnAIHCJMogD5Z1J4exOOQk8ZAkIlg65eNHzNEgQijgQVHPhUKeJYMYBVEjNZyo64lRLXwn-Ywxw7xHX7LjHsqzkjjhQqQFkI2bdTldYO6L2ypEKVm0pX2_EfaBEaflNBByZTCczZQmebO-nEU7Yf-8NPIt9", "width": 927}], "place_id": "ChIJ0Te50zLO20YR6NfEWBBNB9Y", "plus_code": {"compound_code": "VHQP+R5 Minsk, Belarus", "global_code": "9G59VHQP+R5"}, "rating": 4.3, "reference": "ChIJ0Te50zLO20YR6NfEWBBNB9Y", "scope": "GOOGLE", "types": ["subway_station", "transit_station", "point_of_interest", "establishment"], "user_ratings_total": 55, "vicinity": "Minsk"}, {"business_status": "OPERATIONAL", "geometry": {"location": {"lat": 53.89381400000001, "lng": 27.571049}, "viewport": {"northeast": {"lat": 53.8951561802915, "lng": 27.5721685302915}, "southwest": {"lat": 53.8924582197085, "lng": 27.5694705697085}}}, "icon": "https://maps.gstatic.com/mapfiles/place_api/icons/v1/png_71/generic_business-71.png", "icon_background_color": "#7B9EB0", "icon_mask_base_uri": "https://maps.gstatic.com/mapfiles/place_api/icons/v2/generic_pinlet", "name": "Pier\u0161amajskaja", "photos": [{"height": 628, "html_attributions": ["<a href=\"https://maps.google.com/maps/contrib/105787138803370507444\">Nikita Murdasov</a>"], "photo_reference": "AdDdOWogog3FIgq-0KWVQzR9Kwzvdgb5RPzSqN9EmwNCKZbjuVRQ6Ecm7db8EAzR180egAdSP5pySXY8rHb8zacfyPGQtdWPMVtQQIuhCuDkGSr2Xm_LUQ5lbY2mpUdeLMq9VKeHht_RTX8FQNMOeOo7IkaoPV_okOgfGovZ2Fj2fG1cGFLA", "width": 950}], "place_id": "ChIJb5Tcgs_P20YRGSn9Wlh5C2c", "plus_code": {"compound_code": "VHVC+GC Minsk, Belarus", "global_code": "9G59VHVC+GC"}, "rating": 4.4, "reference": "ChIJb5Tcgs_P20YRGSn9Wlh5C2c", "scope": "GOOGLE", "types": ["subway_station", "transit_station", "point_of_interest", "establishment"], "user_ratings_total": 75, "vicinity": "Minsk"}, {"business_status": "OPERATIONAL", "geometry": {"location": {"lat": 53.905235, "lng": 27.53922}, "viewport": {"northeast": {"lat": 53.9066061802915, "lng": 27.54260455}, "southwest": {"lat": 53.9039082197085, "lng": 27.53630635}}}, "icon": "https://maps.gstatic.com/mapfiles/place_api/icons/v1/png_71/generic_business-71.png", "icon_background_color": "#7B9EB0", "icon_mask_base_uri": "https://maps.gstatic.com/mapfiles/place_api/icons/v2/generic_pinlet", "name": "Frunzienskaja", "photos": [{"height": 601, "html_attributions": ["<a href=\"https://maps.google.com/maps/contrib/105787138803370507444\">Nikita Murdasov</a>"], "photo_reference": "AdDdOWo5S53g8iFeD7OuT99XuFhUi_34KBqJ5M4YA0oEqoipVbjLRJMACrJuuA71A0w0SCKr2bTU_ncMlbHzKvRVfU8sRz55VoL5en7GDccc2_YWd3s5_2r7lU28XtA_idw9Mosy38POWvLd_fHoxBIKNg8fezicKBsO11qICAF1GOkVDFIA", "width": 927}], "place_id": "ChIJ6c1IGvLP20YRCZ6Mll6-dqI", "plus_code": {"compound_code": "WG4Q+3M Minsk, Belarus", "global_code": "9G59WG4Q+3M"}, "rating": 4.6, "reference": "ChIJ6c1IGvLP20YRCZ6Mll6-dqI", "scope": "GOOGLE", "types": ["subway_station", "transit_station", "point_of_interest", "establishment"], "user_ratings_total": 89, "vicinity": "vulica Ka\u013avaryjskaja, Minsk"}, {"business_status": "OPERATIONAL", "geometry": {"location": {"lat": 53.90426009999999, "lng": 27.539911}, "viewport": {"northeast": {"lat": 53.9058744302915, "lng": 27.5414910802915}, "southwest": {"lat": 53.90317646970851, "lng": 27.5387931197085}}}, "icon": "https://maps.gstatic.com/mapfiles/place_api/icons/v1/png_71/generic_business-71.png", "icon_background_color": "#7B9EB0", "icon_mask_base_uri": "https://maps.gstatic.com/mapfiles/place_api/icons/v2/generic_pinlet", "name": "Jubiliejnaja plo\u0161\u010da", "photos": [{"height": 667, "html_attributions": ["<a href=\"https://maps.google.com/maps/contrib/105787138803370507444\">Nikita Murdasov</a>"], "photo_reference": "AdDdOWrGrh7e3_agbgkJaFfd15osR7Qe5nvZey8mSOL76Ww-J7v8o-nYQvd2YYg8G2QTrpy_03qgedaNA_KRY6QwiqdIDz0gLVqXbSGvqULjkbGXy8itS7lE_EeZBTnh0PhGdlcwozUNAdPKhwVtuovQHr4u6s_W2-UZOdciF2Y4phzgq8XR", "width": 1000}], "place_id": "ChIJ7767Ae7P20YRFRzg1Mk0dc4", "plus_code": {"compound_code": "WG3Q+PX Minsk, Belarus", "global_code": "9G59WG3Q+PX"}, "rating": 4.4, "reference": "ChIJ7767Ae7P20YRFRzg1Mk0dc4", "scope": "GOOGLE", "types": ["subway_station", "transit_station", "point_of_interest", "establishment"], "user_ratings_total": 16, "vicinity": "Belarus"}, {"business_status": "OPERATIONAL", "geometry": {"location": {"lat": 53.875648, "lng": 27.62957}, "viewport": {"northeast": {"lat": 53.87846195, "lng": 27.63269295000001}, "southwest": {"lat": 53.87305855, "lng": 27.62476235}}}, "icon": "https://maps.gstatic.com/mapfiles/place_api/icons/v1/png_71/generic_business-71.png", "icon_background_color": "#7B9EB0", "icon_mask_base_uri": "https://maps.gstatic.com/mapfiles/place_api/icons/v2/generic_pinlet", "name": "Partyzanskaja", "photos": [{"height": 614, "html_attributions": ["<a href=\"https://maps.google.com/maps/contrib/105787138803370507444\">Nikita Murdasov</a>"], "photo_reference": "AdDdOWqctbRdWtoRmS58_P9PoJ3GbyIHJV9OJp7mbnsFszDFsMIkF-9_-9pOvt4MZHKdtF6do5JqbY-rJJyx37mGQd05EcO4SB2PqIHVbzfgslpdQxdZBAoSQXULbuMAnDH-2GDExRkklBVs5ebUkp2Frd4Eg_JLEtPLsIpuFHZjtyei5So8", "width": 927}], "place_id": "ChIJgYC2txrO20YRI4mB4zKgcf8", "plus_code": {"compound_code": "VJGH+7R Minsk, Belarus", "global_code": "9G59VJGH+7R"}, "rating": 4.5, "reference": "ChIJgYC2txrO20YRI4mB4zKgcf8", "scope": "GOOGLE", "types": ["subway_station", "transit_station", "point_of_interest", "establishment"], "user_ratings_total": 53, "vicinity": "Minsk"}, {"business_status": "OPERATIONAL", "geometry": {"location": {"lat": 53.906799, "lng": 27.522678}, "viewport": {"northeast": {"lat": 53.9079829302915, "lng": 27.5235178802915}, "southwest": {"lat": 53.9052849697085, "lng": 27.5208199197085}}}, "icon": "https://maps.gstatic.com/mapfiles/place_api/icons/v1/png_71/generic_business-71.png", "icon_background_color": "#7B9EB0", "icon_mask_base_uri": "https://maps.gstatic.com/mapfiles/place_api/icons/v2/generic_pinlet", "name": "Maladzio\u017enaja", "photos": [{"height": 796, "html_attributions": ["<a href=\"https://maps.google.com/maps/contrib/105787138803370507444\">Nikita Murdasov</a>"], "photo_reference": "AdDdOWrkuGUBqNDrW44F3xZVrRhOsOugMafWWZkKn7YGlhubN2QVGSX4OdKxDh7BBcXYDEc6jvyLuFsE0xvt2Yn-gpHeb6GkCiniTMoX1v6BS9R_zMRTL5DhlGUoe6tQCmmkW2kFCfeR5V-PU11SqVPa9gaYp1a1LrbKET7cWl_6vr5PgRhQ", "width": 1202}], "place_id": "ChIJPYXpKfbP20YRjEwxeGKKAVk", "plus_code": {"compound_code": "WG4F+P3 Minsk, Belarus", "global_code": "9G59WG4F+P3"}, "rating": 4.4, "reference": "ChIJPYXpKfbP20YRjEwxeGKKAVk", "scope": "GOOGLE", "types": ["subway_station", "transit_station", "point_of_interest", "establishment"], "user_ratings_total": 45, "vicinity": "Pier\u0161y Zaharadny zavulak, Minsk"}, {"business_status": "OPERATIONAL", "geometry": {"location": {"lat": 53.86888800000001, "lng": 27.649227}, "viewport": {"northeast": {"lat": 53.8700104802915, "lng": 27.6509467302915}, "southwest": {"lat": 53.86731251970851, "lng": 27.6482487697085}}}, "icon": "https://maps.gstatic.com/mapfiles/place_api/icons/v1/png_71/generic_business-71.png", "icon_background_color": "#7B9EB0", "icon_mask_base_uri": "https://maps.gstatic.com/mapfiles/place_api/icons/v2/generic_pinlet", "name": "A\u016dtazavodskaja", "photos": [{"height": 606, "html_attributions": ["<a href=\"https://maps.google.com/maps/contrib/105787138803370507444\">Nikita Murdasov</a>"], "photo_reference": "AdDdOWouJXl72PAeRw1mBYbB83j1BaCGSlxtmx3KFS_IK7kobHqUMUBYg_l1DvcHL1I4AS2QWHkRdirSs1CEQAZ4eWmkvz8ao2-6XHU6FzUPLNSXcJksjsAC60nkV67KdqXbW0fZ9GSJWgjCBTqHVsJMvAgVAUpUILDhI2UNeRcyFzwnsb52", "width": 927}], "place_id": "ChIJyZDkA_3N20YR9zyk1D7jEis", "plus_code": {"compound_code": "VJ9X+HM Minsk, Belarus", "global_code": "9G59VJ9X+HM"}, "rating": 4.6, "reference": "ChIJyZDkA_3N20YR9zyk1D7jEis", "scope": "GOOGLE", "types": ["subway_station", "transit_station", "point_of_interest", "establishment"], "user_ratings_total": 21, "vicinity": "Belarus"}, {"business_status": "OPERATIONAL", "geometry": {"location": {"lat": 53.892894, "lng": 27.547886}, "viewport": {"northeast": {"lat": 53.8939019802915, "lng": 27.5497687802915}, "southwest": {"lat": 53.8912040197085, "lng": 27.5470708197085}}}, "icon": "https://maps.gstatic.com/mapfiles/place_api/icons/v1/png_71/generic_business-71.png", "icon_background_color": "#7B9EB0", "icon_mask_base_uri": "https://maps.gstatic.com/mapfiles/place_api/icons/v2/generic_pinlet", "name": "Plo\u0161\u010da Lienina", "photos": [{"height": 6379, "html_attributions": ["<a href=\"https://maps.google.com/maps/contrib/104101425674290531188\">Liavontsi Ananka</a>"], "photo_reference": "AdDdOWpsuN6T59LzvnLCZoLvVqyS-Y5E1uGR5j-6u-lgEnkJQNIX27I46mbLWhGVnCMfjOf-EObVYgDwJfP5IsP_CCnI2TraJ5XAeTLtm1gwC94ThRVu4sWMCgfGmarBgmgtZQJkMXg1hZgivHwUYFInN2APvIg42Mv7lJEg7ZN_VeO41QO6", "width": 8506}], "place_id": "ChIJqzKSk-fP20YR_9fTtPaQtuY", "plus_code": {"compound_code": "VGVX+55 Minsk, Belarus", "global_code": "9G59VGVX+55"}, "rating": 4.5, "reference": "ChIJqzKSk-fP20YR_9fTtPaQtuY", "scope": "GOOGLE", "types": ["subway_station", "transit_station", "point_of_interest", "establishment"], "user_ratings_total": 231, "vicinity": "praspiekt Niezalie\u017enasci 6, Minsk"}], "status": "OK"}